{"business_id": "gnKjwL_1w79qoiV3IC_xQQ", "name": "Musashi Japanese Restaurant", "address": "10110 Johnston Rd, Ste 15", "city": "Charlotte", "state": "NC", "postal_code": "28210", "latitude": 35.092564, "longitude": -80.859132, "stars": 4.0, "review_count": 170, "is_open": 1, "attributes": {"GoodForKids": "True", "NoiseLevel": "average", "RestaurantsDelivery": "False", "GoodForMeal": {"dessert": "False", "latenight": "False", "lunch": "True", "dinner": "True", "brunch": "False", "breakfast": "False"}, "Alcohol": "beer_and_wine", "Caters": "False", "WiFi": "no", "RestaurantsTakeOut": "True", "BusinessAcceptsCreditCards": "True", "Ambience": {"romantic": "False", "intimate": "False", "touristy": "False", "hipster": "False", "divey": "False", "classy": "False", "trendy": "False", "upscale": "False", "casual": "True"}, "BusinessParking": {"garage": "False", "street": "False", "validated": "False", "lot": "True", "valet": "False"}, "RestaurantsTableService": "True", "RestaurantsGoodForGroups": "True", "OutdoorSeating": "False", "HasTV": "True", "BikeParking": "True", "RestaurantsReservations": "True", "RestaurantsPriceRange2": "2", "RestaurantsAttire": "casual"}, "categories": "Sushi Bars, Restaurants, Japanese", "hours": {"Monday": "17:30-21:30", "Wednesday": "17:30-21:30", "Thursday": "17:30-21:30", "Friday": "17:30-22:0", "Saturday": "17:30-22:0", "Sunday": "17:30-21:0"}}
{"business_id": "Y6iyemLX_oylRpnr38vgMA", "name": "Vita Bella Fine Day Spa", "address": "5940 W Union Hills Dr", "city": "Glendale", "state": "AZ", "postal_code": "85308", "latitude": 33.6548146, "longitude": -112.1885676, "stars": 5.0, "review_count": 8, "is_open": 0, "attributes": {"RestaurantsPriceRange2": "2", "ByAppointmentOnly": "True", "BusinessParking": {"garage": "False", "street": "False", "validated": "False", "lot": "True", "valet": "False"}, "BusinessAcceptsCreditCards": "True", "BikeParking": "False"}, "categories": "Nail Salons, Beauty & Spas, Day Spas", "hours": {"Tuesday": "12:0-18:0", "Wednesday": "10:0-18:0", "Thursday": "12:0-18:0", "Friday": "10:0-17:0", "Saturday": "10:0-14:0"}}
{"business_id": "PZ-LZzSlhSe9utkQYU8pFg", "name": "Carluccio's Tivoli Gardens", "address": "1775 E Tropicana Ave, Ste 29", "city": "Las Vegas", "state": "NV", "postal_code": "89119", "latitude": 36.1000163, "longitude": -115.1285285, "stars": 4.0, "review_count": 40, "is_open": 0, "attributes": {"OutdoorSeating": "False", "BusinessAcceptsCreditCards": "True", "RestaurantsDelivery": "False", "RestaurantsReservations": "True", "RestaurantsAttire": "casual", "Ambience": {"romantic": "True", "intimate": "False", "touristy": "False", "hipster": "False", "divey": "False", "classy": "True", "trendy": "False", "upscale": "False", "casual": "False"}, "HasTV": "False", "BYOBCorkage": "no", "NoiseLevel": "quiet", "RestaurantsTakeOut": "True", "RestaurantsPriceRange2": "2", "RestaurantsGoodForGroups": "True", "WiFi": "no", "Caters": "True", "GoodForKids": "True", "Alcohol": "full_bar", "BusinessParking": {"garage": "False", "street": "False", "validated": "False", "lot": "True", "valet": "False"}}, "categories": "Restaurants, Italian", "hours": {}}
{"business_id": "n2kOsDur7tCLygSa87glJQ", "name": "A Woman's Place", "address": "2789 Sunridge Heights Pkwy, Ste 100", "city": "Henderson", "state": "NV", "postal_code": "89052", "latitude": 35.9911594, "longitude": -115.1084553, "stars": 2.5, "review_count": 13, "is_open": 0, "attributes": {"ByAppointmentOnly": "True"}, "categories": "Medical Centers, Doctors, Obstetricians & Gynecologists, Health & Medical", "hours": {}}
{"business_id": "teknANRU8ZKnwdIHWYyd8Q", "name": "Key To Healing Massage", "address": "14202 N Scottsdale Rd", "city": "Scottsdale", "state": "AZ", "postal_code": "85254", "latitude": 33.6168384583, "longitude": -111.9273103315, "stars": 5.0, "review_count": 10, "is_open": 0, "attributes": {"ByAppointmentOnly": "False", "BusinessAcceptsCreditCards": "True"}, "categories": "Massage Therapy, Massage, Health & Medical, Beauty & Spas", "hours": {"Tuesday": "10:0-18:0", "Wednesday": "10:0-18:0", "Thursday": "10:0-18:0", "Friday": "10:0-18:0", "Saturday": "10:0-16:0"}}
{"business_id": "q2KtxnPa6rPSpAlMbg9l8g", "name": "Nothing Bundt Cakes", "address": "17025 N Scottsdale Rd, Ste 110", "city": "Scottsdale", "state": "AZ", "postal_code": "85255", "latitude": 33.6403078149, "longitude": -111.9245281399, "stars": 4.0, "review_count": 174, "is_open": 1, "attributes": {"BikeParking": "True", "BusinessParking": {"garage": "False", "street": "False", "validated": "False", "lot": "True", "valet": "False"}, "BusinessAcceptsCreditCards": "True", "RestaurantsPriceRange2": "2", "RestaurantsTakeOut": "True", "RestaurantsDelivery": "False", "Caters": "True"}, "categories": "Desserts, Food, Cupcakes, Bakeries", "hours": {"Monday": "9:0-18:0", "Tuesday": "9:0-18:0", "Wednesday": "9:0-18:0", "Thursday": "9:0-18:0", "Friday": "9:0-18:0", "Saturday": "9:0-18:0", "Sunday": "10:0-15:0"}}
{"business_id": "qac28VmbQ7OrTMk-RCl7Yg", "name": "Salon Glow", "address": "4830 N Litchfield Rd, Ste 105", "city": "Litchfield Park", "state": "AZ", "postal_code": "85340", "latitude": 33.5063725, "longitude": -112.3587447, "stars": 4.0, "review_count": 10, "is_open": 0, "attributes": {"GoodForKids": "False", "RestaurantsPriceRange2": "2", "ByAppointmentOnly": "False", "BusinessAcceptsCreditCards": "True", "BikeParking": "True", "BusinessParking": {"garage": "False", "street": "False", "validated": "False", "lot": "True", "valet": "False"}}, "categories": "Beauty & Spas, Skin Care, Tanning Beds, Hair Salons, Tanning", "hours": {"Monday": "9:0-20:0", "Tuesday": "9:0-20:0", "Wednesday": "9:0-20:0", "Thursday": "9:0-20:0", "Friday": "9:0-20:0", "Saturday": "9:0-18:0"}}
{"business_id": "dQj5DLZjeDK3KFysh1SYOQ", "name": "Apteka", "address": "4606 Penn Ave", "city": "Pittsburgh", "state": "PA", "postal_code": "15224", "latitude": 40.4656937, "longitude": -79.9493238, "stars": 4.5, "review_count": 242, "is_open": 1, "attributes": {"CoatCheck": "False", "BusinessParking": {"garage": "False", "street": "True", "validated": "False", "lot": "False", "valet": "False"}, "HappyHour": "True", "Smoking": "no", "WiFi": "free", "RestaurantsTableService": "False", "RestaurantsDelivery": "False", "Alcohol": "full_bar", "RestaurantsPriceRange2": "2", "HasTV": "False", "Caters": "True", "Music": {"dj": "False", "background_music": "True", "jukebox": "False", "live": "False", "video": "False", "karaoke": "False"}, "RestaurantsTakeOut": "True", "BestNights": {"monday": "False", "tuesday": "False", "friday": "True", "wednesday": "True", "thursday": "True", "sunday": "False", "saturday": "False"}, "WheelchairAccessible": "True", "BusinessAcceptsCreditCards": "True", "GoodForKids": "False", "BusinessAcceptsBitcoin": "False", "GoodForDancing": "False", "BikeParking": "True", "RestaurantsAttire": "casual", "RestaurantsGoodForGroups": "True", "NoiseLevel": "average", "RestaurantsReservations": "False", "Ambience": {"romantic": "False", "intimate": "False", "classy": "False", "hipster": "True", "divey": "False", "touristy": "False", "trendy": "False", "upscale": "False", "casual": "True"}, "GoodForMeal": {"dessert": "False", "latenight": "False", "lunch": "False", "dinner": "True", "brunch": "False", "breakfast": "False"}, "OutdoorSeating": "False"}, "categories": "Nightlife, Bars, Polish, Modern European, Restaurants, Vegan", "hours": {"Wednesday": "17:0-0:0", "Thursday": "17:0-0:0", "Friday": "17:0-0:0", "Saturday": "17:0-0:0", "Sunday": "17:0-0:0"}}
{"business_id": "v-scZMU6jhnmV955RSzGJw", "name": "No. 1 Sushi Sushi", "address": "436 Market St", "city": "Pittsburgh", "state": "PA", "postal_code": "15222", "latitude": 40.441062, "longitude": -80.002126, "stars": 4.5, "review_count": 106, "is_open": 1, "attributes": {"OutdoorSeating": "False", "HasTV": "True", "NoiseLevel": "average", "BusinessAcceptsCreditCards": "True", "RestaurantsTableService": "True", "BusinessParking": {"garage": "False", "street": "True", "validated": "False", "lot": "False", "valet": "False"}, "RestaurantsDelivery": "False", "WiFi": "no", "RestaurantsReservations": "False", "GoodForMeal": {"dessert": "False", "latenight": "False", "lunch": "True", "dinner": "False", "brunch": "False", "breakfast": "False"}, "RestaurantsTakeOut": "True", "Alcohol": "none", "RestaurantsGoodForGroups": "False", "BikeParking": "True", "WheelchairAccessible": "True", "Caters": "True", "Ambience": {"touristy": "False", "hipster": "False", "romantic": "False", "divey": "False", "intimate": "False", "trendy": "False", "upscale": "False", "classy": "False", "casual": "True"}, "RestaurantsAttire": "casual", "RestaurantsPriceRange2": "2", "GoodForKids": "True"}, "categories": "Japanese, Sushi Bars, Restaurants", "hours": {"Monday": "11:0-20:0", "Tuesday": "11:0-20:0", "Wednesday": "11:0-20:0", "Thursday": "11:0-20:0", "Friday": "11:0-20:0"}}
{"business_id": "kANF0dbeoW34s2vwh6Umfw", "name": "Dairy Queen", "address": "6125 Spring Mountain Rd", "city": "Las Vegas", "state": "NV", "postal_code": "89146", "latitude": 36.1250311, "longitude": -115.2256202, "stars": 2.0, "review_count": 33, "is_open": 0, "attributes": {"RestaurantsPriceRange2": "1", "Ambience": {"romantic": "False", "intimate": "False", "classy": "False", "hipster": "False", "divey": "False", "touristy": "False", "trendy": "False", "upscale": "False", "casual": "True"}, "RestaurantsGoodForGroups": "True", "RestaurantsTakeOut": "True", "NoiseLevel": "average", "BusinessAcceptsCreditCards": "True", "RestaurantsAttire": "casual", "BikeParking": "True", "OutdoorSeating": "False", "HasTV": "False", "RestaurantsReservations": "False", "BusinessParking": {"garage": "False", "street": "False", "validated": "False", "lot": "True", "valet": "False"}, "RestaurantsDelivery": "False", "WiFi": "no", "GoodForKids": "True", "Alcohol": "none", "Caters": "False"}, "categories": "Fast Food, Food, Restaurants, Ice Cream & Frozen Yogurt", "hours": {}}
{"business_id": "D6ffAaTr_m5lsKxHNp9fwg", "name": "Goveias Salon & Spa", "address": "6949 E 5th Ave", "city": "Scottsdale", "state": "AZ", "postal_code": "85251", "latitude": 33.4842100799, "longitude": -111.9342308109, "stars": 5.0, "review_count": 18, "is_open": 1, "attributes": {"RestaurantsPriceRange2": "2", "BusinessAcceptsCreditCards": "True", "BikeParking": "True", "ByAppointmentOnly": "True", "BusinessParking": {"garage": "False", "street": "True", "validated": "False", "lot": "False", "valet": "False"}}, "categories": "Eyebrow Services, Hair Salons, Day Spas, Nail Salons, Beauty & Spas", "hours": {"Monday": "12:0-17:0", "Tuesday": "8:0-19:0", "Wednesday": "12:0-17:0", "Thursday": "8:0-19:0", "Friday": "8:0-17:0", "Saturday": "8:0-17:0"}}
{"business_id": "44YFU284Z3KDEy25QyVoUw", "name": "Nee House Chinese Restaurant", "address": "13843 N Tatum Blvd, Ste 15", "city": "Phoenix", "state": "AZ", "postal_code": "85032", "latitude": 33.6130201898, "longitude": -111.9770356779, "stars": 3.5, "review_count": 269, "is_open": 1, "attributes": {"Caters": "True", "GoodForKids": "True", "NoiseLevel": "average", "RestaurantsPriceRange2": "2", "BusinessAcceptsCreditCards": "True", "HasTV": "False", "OutdoorSeating": "False", "RestaurantsTakeOut": "True", "RestaurantsTableService": "True", "RestaurantsDelivery": "False", "BusinessParking": {"garage": "False", "street": "False", "validated": "False", "lot": "True", "valet": "False"}, "RestaurantsReservations": "True", "BikeParking": "True", "GoodForMeal": {"dessert": "False", "latenight": "False", "lunch": "True", "dinner": "True", "brunch": "False", "breakfast": "False"}, "Ambience": {"romantic": "False", "intimate": "False", "touristy": "False", "hipster": "False", "divey": "False", "classy": "False", "trendy": "False", "upscale": "False", "casual": "True"}, "WiFi": "no", "Alcohol": "beer_and_wine", "RestaurantsGoodForGroups": "True", "RestaurantsAttire": "casual"}, "categories": "Chinese, Restaurants", "hours": {"Monday": "11:0-21:0", "Tuesday": "11:0-21:0", "Wednesday": "11:0-21:0", "Thursday": "11:0-21:0", "Friday": "11:0-21:30", "Saturday": "11:0-21:30", "Sunday": "11:0-21:30"}}
{"business_id": "1lp-Y6oaoI4BOPU3hyvIVQ", "name": "Renters Warehouse", "address": "376 E Warm Springs Rd, Ste 240", "city": "Las Vegas", "state": "NV", "postal_code": "89119", "latitude": 36.057517, "longitude": -115.1552512, "stars": 3.5, "review_count": 26, "is_open": 1, "attributes": {"ByAppointmentOnly": "True", "BusinessAcceptsBitcoin": "False", "BusinessAcceptsCreditCards": "True"}, "categories": "Property Management, Home Services, Real Estate", "hours": {"Monday": "5:0-17:0", "Tuesday": "5:0-17:0", "Wednesday": "5:0-17:0", "Thursday": "5:0-17:0", "Friday": "5:0-17:0"}}
{"business_id": "f2ZWZPENViL92BrFsIgR6w", "name": "Amazing Cuts", "address": "6955 N Durango Dr, Ste 1116", "city": "Las Vegas", "state": "NV", "postal_code": "89149", "latitude": 36.2873119, "longitude": -115.2895402, "stars": 4.5, "review_count": 116, "is_open": 1, "attributes": {"RestaurantsPriceRange2": "1", "BusinessParking": {"garage": "False", "street": "False", "validated": "False", "lot": "True", "valet": "False"}, "GoodForKids": "True", "BusinessAcceptsCreditCards": "True", "BikeParking": "True", "ByAppointmentOnly": "False"}, "categories": "Beauty & Spas, Hair Salons", "hours": {"Monday": "8:30-20:0", "Tuesday": "8:30-20:0", "Wednesday": "8:30-20:0", "Thursday": "8:30-20:0", "Friday": "8:30-20:0", "Saturday": "8:0-19:0", "Sunday": "8:0-19:0"}}
{"business_id": "OOnIQMkjg1VpAcPRFLnM0g", "name": "Stein Mart", "address": "5960 W Bell Rd", "city": "Glendale", "state": "AZ", "postal_code": "85308", "latitude": 33.6403899876, "longitude": -112.1879866719, "stars": 4.0, "review_count": 7, "is_open": 1, "attributes": {"BikeParking": "False", "BusinessParking": {"garage": "False", "street": "False", "validated": "False", "lot": "True", "valet": "False"}, "BusinessAcceptsCreditCards": "True", "RestaurantsPriceRange2": "2"}, "categories": "Shopping, Fashion, Home & Garden, Department Stores, Women's Clothing, Home Decor, Men's Clothing", "hours": {"Monday": "10:0-21:0", "Tuesday": "10:0-21:0", "Wednesday": "10:0-21:0", "Thursday": "10:0-21:0", "Friday": "10:0-21:0", "Saturday": "10:0-21:0", "Sunday": "11:0-18:0"}}
{"business_id": "pLMfv9jqRElSyJ9pcuFgdA", "name": "U.S. Bank", "address": "4550 E Sunset Rd", "city": "Henderson", "state": "NV", "postal_code": "89014", "latitude": 36.071264, "longitude": -115.0746319, "stars": 4.0, "review_count": 13, "is_open": 1, "attributes": {}, "categories": "Banks & Credit Unions, Financial Services", "hours": {"Monday": "8:0-17:0", "Tuesday": "8:0-17:0", "Wednesday": "8:0-17:0", "Thursday": "8:0-17:0", "Friday": "8:0-17:0", "Saturday": "9:0-14:0"}}
{"business_id": "wUsjANxpknTpsaTjYoo9iA", "name": "Venetian Nail Spa", "address": "19312 Detroit Rd", "city": "Rocky River", "state": "OH", "postal_code": "44116", "latitude": 41.4817445, "longitude": -81.8361651, "stars": 2.5, "review_count": 52, "is_open": 1, "attributes": {"BusinessAcceptsCreditCards": "True", "BusinessParking": {"garage": "False", "street": "False", "validated": "False", "lot": "True", "valet": "False"}, "BikeParking": "True", "ByAppointmentOnly": "False", "RestaurantsPriceRange2": "2"}, "categories": "Beauty & Spas, Nail Salons", "hours": {"Monday": "10:0-20:0", "Tuesday": "10:0-20:0", "Wednesday": "10:0-20:0", "Thursday": "10:0-20:0", "Friday": "10:0-20:0", "Saturday": "10:0-20:0", "Sunday": "11:0-18:0"}}
{"business_id": "r8764MtYyt8JhxMvrfM_xQ", "name": "Vintage 95", "address": "95 W Boston", "city": "Chandler", "state": "AZ", "postal_code": "85225", "latitude": 33.3020931, "longitude": -111.8426128, "stars": 4.0, "review_count": 320, "is_open": 0, "attributes": {"OutdoorSeating": "True", "HasTV": "True", "NoiseLevel": "average", "Alcohol": "full_bar", "BusinessAcceptsCreditCards": "True", "RestaurantsAttire": "casual", "Caters": "False", "RestaurantsDelivery": "False", "RestaurantsTakeOut": "True", "Ambience": {"romantic": "False", "intimate": "True", "classy": "False", "hipster": "False", "divey": "False", "touristy": "False", "trendy": "False", "upscale": "False", "casual": "False"}, "RestaurantsGoodForGroups": "True", "BusinessParking": {"garage": "False", "street": "True", "validated": "False", "lot": "False", "valet": "False"}, "GoodForKids": "False", "RestaurantsPriceRange2": "2", "WiFi": "free", "BikeParking": "True", "RestaurantsReservations": "True"}, "categories": "American (New), Bars, Wine Bars, Nightlife, Restaurants", "hours": {"Monday": "11:0-22:0", "Tuesday": "11:0-22:0", "Wednesday": "11:0-22:0", "Thursday": "11:0-22:0", "Friday": "11:0-0:0", "Saturday": "11:0-0:0", "Sunday": "10:0-22:0"}}
{"business_id": "voZnDQs6Hs3YpNcS-9TALg", "name": "New Mexican Grill", "address": "3140 S Gilbert Rd, Ste 3", "city": "Chandler", "state": "AZ", "postal_code": "85286", "latitude": 33.261325, "longitude": -111.790815, "stars": 4.0, "review_count": 84, "is_open": 0, "attributes": {"GoodForKids": "True", "RestaurantsReservations": "False", "RestaurantsPriceRange2": "1", "RestaurantsAttire": "casual", "OutdoorSeating": "False", "Ambience": {"romantic": "False", "intimate": "False", "touristy": "False", "hipster": "False", "divey": "False", "classy": "False", "trendy": "False", "upscale": "False", "casual": "True"}, "BikeParking": "True", "BusinessAcceptsCreditCards": "True", "WiFi": "no", "RestaurantsTakeOut": "True", "Caters": "True", "NoiseLevel": "average", "BusinessParking": {"garage": "False", "street": "False", "validated": "False", "lot": "True", "valet": "False"}, "HasTV": "True", "RestaurantsGoodForGroups": "True", "Alcohol": "none", "RestaurantsDelivery": "False"}, "categories": "Restaurants, Mexican", "hours": {}}
{"business_id": "U3kygJOTlTQFlfaZS7sQjA", "name": "JJ's Red Hots - Dilworth", "address": "1514 East Blvd", "city": "Charlotte", "state": "NC", "postal_code": "28203", "latitude": 35.1997979674, "longitude": -80.842294693, "stars": 4.0, "review_count": 380, "is_open": 1, "attributes": {"RestaurantsReservations": "True", "BusinessAcceptsCreditCards": "True", "OutdoorSeating": "True", "Ambience": {"romantic": "False", "intimate": "False", "touristy": "False", "hipster": "False", "divey": "False", "classy": "False", "trendy": "False", "upscale": "False", "casual": "True"}, "HasTV": "True", "BusinessParking": {"garage": "False", "street": "False", "validated": "False", "lot": "True", "valet": "False"}, "BikeParking": "True", "WiFi": "free", "RestaurantsGoodForGroups": "True", "RestaurantsTakeOut": "True", "NoiseLevel": "average", "GoodForMeal": {"dessert": "False", "latenight": "False", "lunch": "True", "dinner": "True", "brunch": "False", "breakfast": "False"}, "Alcohol": "beer_and_wine", "RestaurantsAttire": "casual", "GoodForKids": "True", "Caters": "True", "RestaurantsPriceRange2": "1", "RestaurantsDelivery": "False"}, "categories": "Caterers, Hot Dogs, Restaurants, Vegetarian, American (Traditional), Event Planning & Services", "hours": {"Monday": "11:0-21:0", "Tuesday": "11:0-21:0", "Wednesday": "11:0-21:0", "Thursday": "11:0-21:0", "Friday": "11:0-21:0", "Saturday": "11:0-21:0", "Sunday": "11:0-21:0"}}
{"business_id": "Ik-vXB7HCwnC44KDf_nwdw", "name": "Carl's Place - 900 Series Motorsports", "address": "3043 Meade Ave, Ste A", "city": "Las Vegas", "state": "NV", "postal_code": "89102", "latitude": 36.1358646, "longitude": -115.1823852, "stars": 4.5, "review_count": 13, "is_open": 1, "attributes": {"BusinessAcceptsCreditCards": "True"}, "categories": "Automotive, Auto Repair", "hours": {"Monday": "8:0-17:30", "Tuesday": "8:0-17:30", "Wednesday": "8:0-17:30", "Thursday": "8:0-17:30", "Friday": "8:0-17:30"}}
{"business_id": "nsNONDHbV7Vudqh21uicqw", "name": "Salt Cellar", "address": "550 N Hayden Rd", "city": "Scottsdale", "state": "AZ", "postal_code": "85257", "latitude": 33.454286, "longitude": -111.909405, "stars": 3.5, "review_count": 526, "is_open": 1, "attributes": {"BusinessAcceptsCreditCards": "True", "RestaurantsTakeOut": "False", "RestaurantsReservations": "True", "WiFi": "no", "RestaurantsPriceRange2": "3", "Alcohol": "full_bar", "OutdoorSeating": "False", "RestaurantsAttire": "casual", "Ambience": {"touristy": "False", "hipster": "False", "romantic": "False", "divey": "False", "intimate": "False", "trendy": "False", "upscale": "False", "classy": "False", "casual": "False"}, "GoodForKids": "False", "Caters": "False", "BikeParking": "False", "NoiseLevel": "average", "RestaurantsDelivery": "False", "GoodForMeal": {"dessert": "False", "latenight": "False", "lunch": "False", "dinner": "True", "brunch": "False", "breakfast": "False"}, "RestaurantsGoodForGroups": "True", "HasTV": "True", "BusinessParking": {"garage": "False", "street": "False", "validated": "False", "lot": "True", "valet": "False"}}, "categories": "Seafood, Restaurants", "hours": {"Monday": "16:0-0:0", "Tuesday": "16:0-0:0", "Wednesday": "16:0-0:0", "Thursday": "16:0-0:0", "Friday": "16:0-0:0", "Saturday": "16:0-0:0", "Sunday": "16:0-0:0"}}
{"business_id": "MhnihE0alud0ereVInSt8Q", "name": "Yummy Yummy Chinese Restaurant", "address": "2765 N Scottsdale Rd, Ste 105", "city": "Scottsdale", "state": "AZ", "postal_code": "85257", "latitude": 33.478754, "longitude": -111.925484, "stars": 3.0, "review_count": 188, "is_open": 1, "attributes": {"OutdoorSeating": "False", "RestaurantsGoodForGroups": "False", "RestaurantsTakeOut": "True", "GoodForKids": "True", "BikeParking": "True", "WiFi": "no", "RestaurantsAttire": "casual", "RestaurantsDelivery": "True", "Alcohol": "none", "RestaurantsReservations": "False", "HasTV": "True", "BusinessAcceptsCreditCards": "True", "RestaurantsPriceRange2": "1", "Caters": "True", "BusinessParking": {"garage": "False", "street": "False", "validated": "False", "lot": "True", "valet": "False"}, "Ambience": {"romantic": "False", "intimate": "False", "touristy": "False", "hipster": "False", "divey": "True", "classy": "False", "trendy": "False", "upscale": "False", "casual": "False"}, "NoiseLevel": "average"}, "categories": "Chinese, Restaurants", "hours": {"Monday": "11:0-21:30", "Tuesday": "11:0-21:30", "Wednesday": "11:0-21:30", "Thursday": "11:0-21:30", "Friday": "11:0-22:0", "Saturday": "11:0-22:0", "Sunday": "11:0-21:30"}}
{"business_id": "zTIna6imZC9Ij5JWgHL9jw", "name": "Hair Design By Mary Ann", "address": "5710 Simmons St, Ste 101, Luxe Salon Studios", "city": "North Las Vegas", "state": "NV", "postal_code": "89031", "latitude": 36.264034, "longitude": -115.179273, "stars": 4.0, "review_count": 23, "is_open": 1, "attributes": {"BikeParking": "True", "RestaurantsPriceRange2": "1", "WheelchairAccessible": "True", "HairSpecializesIn": {"straightperms": "True", "coloring": "True", "extensions": "False", "africanamerican": "False", "curly": "True", "kids": "True", "perms": "True", "asian": "True"}, "BusinessAcceptsCreditCards": "False", "ByAppointmentOnly": "True", "GoodForKids": "True", "BusinessParking": {"garage": "False", "street": "False", "validated": "False", "lot": "True", "valet": "False"}}, "categories": "Hair Salons, Hair Stylists, Beauty & Spas", "hours": {"Monday": "7:0-19:0", "Tuesday": "7:0-19:0", "Wednesday": "7:0-19:0", "Thursday": "7:0-19:0", "Friday": "7:0-19:0", "Saturday": "7:0-19:0", "Sunday": "7:30-8:0"}}
{"business_id": "FDEm-c3NAXnTVtl-hgzAhA", "name": "Heart Attack Grill", "address": "6185 W Chandler Blvd", "city": "Chandler", "state": "AZ", "postal_code": "85226", "latitude": 33.3047634, "longitude": -111.948079, "stars": 3.0, "review_count": 104, "is_open": 0, "attributes": {"Ambience": {"romantic": "False", "intimate": "False", "touristy": "True", "hipster": "False", "divey": "False", "classy": "False", "trendy": "False", "upscale": "False", "casual": "False"}, "RestaurantsDelivery": "False", "HasTV": "True", "OutdoorSeating": "True", "RestaurantsPriceRange2": "2", "Alcohol": "full_bar", "BusinessAcceptsCreditCards": "False", "NoiseLevel": "average", "RestaurantsGoodForGroups": "True", "RestaurantsAttire": "casual", "RestaurantsReservations": "False", "RestaurantsTakeOut": "True", "Caters": "True", "BusinessParking": {"garage": "False", "street": "False", "validated": "False", "lot": "True", "valet": "False"}, "GoodForKids": "False", "WiFi": "no"}, "categories": "Burgers, Restaurants", "hours": {"Monday": "11:0-20:30", "Tuesday": "11:0-20:30", "Wednesday": "11:0-20:30", "Thursday": "11:0-20:30", "Friday": "11:0-20:30", "Saturday": "11:0-20:30", "Sunday": "11:0-15:30"}}
{"business_id": "jdJwziOX5FB2C2D-vESY0Q", "name": "Mozell & Company Hair", "address": "7146 E 1st St, Ste 9", "city": "Scottsdale", "state": "AZ", "postal_code": "85251", "latitude": 33.492491, "longitude": -111.9271551, "stars": 4.0, "review_count": 31, "is_open": 1, "attributes": {"ByAppointmentOnly": "True", "BusinessParking": {"garage": "False", "street": "True", "validated": "False", "lot": "True", "valet": "False"}, "BusinessAcceptsCreditCards": "True", "BikeParking": "True", "RestaurantsPriceRange2": "2", "GoodForKids": "True"}, "categories": "Professional Services, Cosmetics & Beauty Supply, Hair Salons, Nail Salons, Hair Stylists, Beauty & Spas, Shopping, Hair Extensions, Blow Dry/Out Services, Barbers", "hours": {"Monday": "0:0-0:0", "Tuesday": "10:0-18:0", "Wednesday": "10:0-18:0", "Thursday": "10:0-18:0", "Friday": "10:0-18:0", "Saturday": "10:0-18:0"}}
{"business_id": "Sd75ucXKoZUM2BEfBHFUOg", "name": "China Gourmet", "address": "3460 E Southern Ave, Ste 109", "city": "Mesa", "state": "AZ", "postal_code": "85204", "latitude": 33.39486287, "longitude": -111.7560359322, "stars": 3.0, "review_count": 13, "is_open": 0, "attributes": {"WiFi": "no", "GoodForKids": "True", "RestaurantsPriceRange2": "1", "BusinessAcceptsCreditCards": "True", "RestaurantsTakeOut": "True", "RestaurantsReservations": "False", "OutdoorSeating": "False", "BusinessParking": {"garage": "False", "street": "False", "validated": "False", "lot": "False", "valet": "False"}, "BikeParking": "False", "RestaurantsAttire": "casual", "NoiseLevel": "quiet", "RestaurantsGoodForGroups": "True", "RestaurantsDelivery": "True"}, "categories": "Chinese, Restaurants", "hours": {}}
{"business_id": "Ia6G7YSAXi8twqvUJDcoHg", "name": "Tillys", "address": "16455 N Scottsdale Rd", "city": "Scottsdale", "state": "AZ", "postal_code": "85254", "latitude": 33.635393447, "longitude": -111.9226590638, "stars": 3.0, "review_count": 11, "is_open": 1, "attributes": {"RestaurantsPriceRange2": "2", "BusinessParking": {"garage": "True", "street": "False", "validated": "False", "lot": "False", "valet": "False"}, "BusinessAcceptsCreditCards": "True", "BikeParking": "True"}, "categories": "Shopping, Fashion, Women's Clothing, Accessories", "hours": {}}
{"business_id": "a7zF4dDTeswXZGmohBDbJw", "name": "Howlers", "address": "4509 Liberty Ave", "city": "Pittsburgh", "state": "PA", "postal_code": "15224", "latitude": 40.4631316, "longitude": -79.9513033, "stars": 3.5, "review_count": 26, "is_open": 1, "attributes": {"WiFi": "no", "Ambience": {"romantic": "False", "intimate": "False", "classy": "False", "hipster": "False", "divey": "True", "touristy": "False", "trendy": "False", "upscale": "False", "casual": "False"}, "RestaurantsReservations": "False", "RestaurantsGoodForGroups": "True", "CoatCheck": "False", "GoodForKids": "False", "BestNights": {"monday": "False", "tuesday": "False", "friday": "False", "wednesday": "False", "thursday": "False", "sunday": "False", "saturday": "False"}, "BusinessParking": {"garage": "False", "street": "True", "validated": "False", "lot": "False", "valet": "False"}, "Alcohol": "full_bar", "RestaurantsPriceRange2": "1", "OutdoorSeating": "False", "BikeParking": "True", "NoiseLevel": "loud", "HasTV": "True", "BusinessAcceptsCreditCards": "False", "GoodForDancing": "False", "Music": {"dj": "False", "background_music": "False", "no_music": "False", "jukebox": "False", "live": "True", "video": "False", "karaoke": "False"}}, "categories": "Arts & Entertainment, Music Venues, Nightlife, Bars", "hours": {"Monday": "16:0-2:0", "Tuesday": "16:0-2:0", "Wednesday": "16:0-2:0", "Thursday": "16:0-2:0", "Friday": "16:0-2:0", "Saturday": "18:0-2:0", "Sunday": "18:0-2:0"}}
{"business_id": "IeSExZRuxGhBYbZvLk0Srw", "name": "Unique Nails Service", "address": "12039 Perry Hwy", "city": "Wexford", "state": "PA", "postal_code": "15090", "latitude": 40.6315503, "longitude": -80.0602155, "stars": 3.0, "review_count": 21, "is_open": 1, "attributes": {"BikeParking": "True", "WheelchairAccessible": "True", "ByAppointmentOnly": "False", "RestaurantsPriceRange2": "2", "BusinessAcceptsCreditCards": "True", "BusinessParking": {"garage": "False", "street": "False", "validated": "False", "lot": "True", "valet": "False"}}, "categories": "Beauty & Spas, Nail Salons", "hours": {"Monday": "9:0-20:0", "Tuesday": "9:0-20:0", "Wednesday": "9:0-20:0", "Thursday": "9:0-20:0", "Friday": "9:0-20:0", "Saturday": "9:0-19:0", "Sunday": "11:0-18:0"}}
{"business_id": "CU047MuCn7u-9UGA2-xhmA", "name": "Carnegie Museum of Art", "address": "4400 Forbes Ave", "city": "Pittsburgh", "state": "PA", "postal_code": "15213", "latitude": 40.4432834, "longitude": -79.9502225, "stars": 4.0, "review_count": 55, "is_open": 1, "attributes": {"GoodForKids": "True", "RestaurantsPriceRange2": "2", "BikeParking": "True", "BusinessParking": {"garage": "True", "street": "True", "validated": "False", "lot": "False", "valet": "False"}, "BusinessAcceptsCreditCards": "True", "ByAppointmentOnly": "False"}, "categories": "Art Galleries, Shopping, Arts & Entertainment, Museums, Art Museums", "hours": {"Monday": "10:0-17:0", "Wednesday": "10:0-17:0", "Thursday": "10:0-20:0", "Friday": "10:0-17:0", "Saturday": "10:0-17:0", "Sunday": "12:0-17:0"}}
{"business_id": "KiE81YHZCEdPPlmrXghgzA", "name": "Sun Valley Nail and Spa", "address": "4024 E Guadalupe Rd, Ste 101", "city": "Gilbert", "state": "AZ", "postal_code": "85234", "latitude": 33.365437, "longitude": -111.7041741, "stars": 3.5, "review_count": 34, "is_open": 1, "attributes": {"BusinessAcceptsCreditCards": "True", "RestaurantsPriceRange2": "2", "ByAppointmentOnly": "False", "BusinessParking": {"garage": "False", "street": "False", "validated": "False", "lot": "True", "valet": "False"}, "BikeParking": "True"}, "categories": "Beauty & Spas, Nail Salons", "hours": {"Monday": "9:0-19:0", "Tuesday": "9:0-19:0", "Wednesday": "9:0-19:0", "Thursday": "9:0-19:0", "Friday": "9:0-19:0", "Saturday": "9:0-18:0", "Sunday": "11:0-17:0"}}
{"business_id": "dUffgo9Lh_Vk9TLuFR5ywg", "name": "Oregano's Pizza Bistro", "address": "1008 E Camelback Rd", "city": "Phoenix", "state": "AZ", "postal_code": "85014", "latitude": 33.50951, "longitude": -112.060238, "stars": 3.5, "review_count": 563, "is_open": 1, "attributes": {"Alcohol": "full_bar", "RestaurantsAttire": "casual", "Caters": "True", "BikeParking": "True", "RestaurantsReservations": "False", "RestaurantsDelivery": "False", "HasTV": "True", "OutdoorSeating": "True", "GoodForKids": "True", "RestaurantsTakeOut": "True", "RestaurantsGoodForGroups": "True", "RestaurantsPriceRange2": "2", "BusinessAcceptsCreditCards": "True", "BusinessParking": {"garage": "False", "street": "False", "validated": "False", "lot": "True", "valet": "False"}, "Ambience": {"romantic": "False", "intimate": "False", "touristy": "False", "hipster": "False", "divey": "False", "classy": "False", "trendy": "False", "upscale": "False", "casual": "True"}, "WiFi": "no", "NoiseLevel": "average", "GoodForMeal": {"dessert": "True", "latenight": "False", "lunch": "True", "dinner": "True", "brunch": "False", "breakfast": "False"}}, "categories": "Restaurants, Pizza, Sandwiches, Italian", "hours": {"Monday": "11:0-22:0", "Tuesday": "11:0-22:0", "Wednesday": "11:0-22:0", "Thursday": "11:0-22:0", "Friday": "11:0-22:0", "Saturday": "11:0-22:0", "Sunday": "11:0-22:0"}}
{"business_id": "Kot0deqA1WAbZ7YXY5fQ5w", "name": "The Home Depot", "address": "400 N Highland Ave", "city": "Pittsburgh", "state": "PA", "postal_code": "15206", "latitude": 40.4646775, "longitude": -79.9221005, "stars": 2.5, "review_count": 41, "is_open": 1, "attributes": {"BusinessParking": {"garage": "False", "street": "False", "validated": "False", "lot": "True", "valet": "False"}, "BikeParking": "True", "RestaurantsPriceRange2": "2", "BusinessAcceptsCreditCards": "True"}, "categories": "Home Services, Department Stores, Fashion, Nurseries & Gardening, Hardware Stores, Home & Garden, Shopping, Building Supplies, Appliances", "hours": {"Monday": "6:0-21:0", "Tuesday": "6:0-21:0", "Wednesday": "6:0-21:0", "Thursday": "6:0-21:0", "Friday": "6:0-21:0", "Saturday": "6:0-21:0", "Sunday": "8:0-19:0"}}
{"business_id": "8TBt9XAVZIZR2Y0EqBHskg", "name": "Cobblestone Auto Spa", "address": "616 W Baseline Rd", "city": "Tempe", "state": "AZ", "postal_code": "85283", "latitude": 33.3785398438, "longitude": -111.9464290865, "stars": 2.5, "review_count": 147, "is_open": 1, "attributes": {"BusinessAcceptsCreditCards": "True", "BusinessParking": {"garage": "False", "street": "False", "validated": "False", "lot": "False", "valet": "False"}, "RestaurantsPriceRange2": "2"}, "categories": "Food, Gas Stations, Car Wash, Convenience Stores, Automotive, Auto Detailing, Oil Change Stations", "hours": {"Monday": "7:0-18:0", "Tuesday": "7:0-18:0", "Wednesday": "7:0-18:0", "Thursday": "7:0-18:0", "Friday": "7:0-18:0", "Saturday": "7:0-18:0", "Sunday": "7:0-18:0"}}
{"business_id": "ecJri9ozyke4dOCWulZiRQ", "name": "Nishikawa Ramen", "address": "1909 E Ray Rd", "city": "Chandler", "state": "AZ", "postal_code": "85225", "latitude": 33.3200057, "longitude": -111.8096749, "stars": 4.0, "review_count": 427, "is_open": 1, "attributes": {"RestaurantsDelivery": "False", "RestaurantsTableService": "True", "Ambience": {"romantic": "False", "intimate": "False", "classy": "False", "hipster": "False", "divey": "False", "touristy": "False", "trendy": "False", "upscale": "False", "casual": "True"}, "RestaurantsReservations": "False", "WiFi": "free", "WheelchairAccessible": "True", "RestaurantsAttire": "casual", "RestaurantsTakeOut": "True", "BusinessAcceptsCreditCards": "True", "RestaurantsGoodForGroups": "True", "HasTV": "True", "GoodForKids": "True", "BusinessParking": {"garage": "False", "street": "False", "validated": "False", "lot": "True", "valet": "False"}, "OutdoorSeating": "False", "NoiseLevel": "average", "BusinessAcceptsBitcoin": "False", "Caters": "True", "Alcohol": "full_bar", "GoodForMeal": {"dessert": "False", "latenight": "False", "lunch": "True", "dinner": "True", "brunch": "False", "breakfast": "False"}, "RestaurantsPriceRange2": "2", "BikeParking": "True"}, "categories": "Asian Fusion, Japanese, Restaurants, Ramen, Tapas Bars", "hours": {"Monday": "17:0-21:30", "Tuesday": "17:0-21:30", "Wednesday": "17:0-21:30", "Thursday": "17:0-21:30", "Friday": "11:0-21:30", "Saturday": "11:0-21:30", "Sunday": "11:0-21:30"}}
{"business_id": "pSSJHn14sdH6oGPwtRn1Xg", "name": "Heng Hong Custom Tailor", "address": "7514 E Camelback Rd", "city": "Scottsdale", "state": "AZ", "postal_code": "85251", "latitude": 33.502464, "longitude": -111.91961, "stars": 3.5, "review_count": 9, "is_open": 0, "attributes": {"BusinessAcceptsCreditCards": "False"}, "categories": "Sewing & Alterations, Local Services", "hours": {}}
{"business_id": "EQq1K0q9VVJm4zYw0NGwfA", "name": "ADEQ", "address": "8448 E Evans Rd", "city": "Scottsdale", "state": "AZ", "postal_code": "85260", "latitude": 33.6168825, "longitude": -111.8994858, "stars": 3.5, "review_count": 34, "is_open": 1, "attributes": {"BusinessAcceptsCreditCards": "True"}, "categories": "Automotive, Smog Check Stations", "hours": {}}
{"business_id": "trMrmg0EKcxEYAkqLBbRMA", "name": "Piggly's At the Fair", "address": "1633 S Stapley Dr", "city": "Mesa", "state": "AZ", "postal_code": "85204", "latitude": 33.38449, "longitude": -111.80411, "stars": 3.0, "review_count": 85, "is_open": 0, "attributes": {"HasTV": "True", "RestaurantsAttire": "casual", "RestaurantsReservations": "True", "GoodForKids": "True", "NoiseLevel": "average", "BusinessParking": {"garage": "False", "street": "False", "validated": "False", "lot": "True", "valet": "False"}, "Caters": "True", "RestaurantsGoodForGroups": "True", "WiFi": "free", "Ambience": {"romantic": "False", "intimate": "False", "touristy": "False", "hipster": "False", "divey": "False", "classy": "False", "trendy": "False", "upscale": "False", "casual": "True"}, "RestaurantsPriceRange2": "2", "RestaurantsTakeOut": "True", "BusinessAcceptsCreditCards": "True", "RestaurantsDelivery": "False", "Alcohol": "full_bar", "OutdoorSeating": "True"}, "categories": "Food, Beer, Wine & Spirits, Restaurants, Barbeque, Local Flavor, American (Traditional)", "hours": {"Tuesday": "11:0-21:0", "Wednesday": "11:0-21:0", "Thursday": "11:0-21:0", "Friday": "11:0-22:0", "Saturday": "11:0-22:0", "Sunday": "11:0-21:0"}}
{"business_id": "w6l6uq95_-36unVjTaFIXw", "name": "Raul Stylist Doctor Blonde", "address": "4010 S Fort Apache Rd", "city": "Las Vegas", "state": "NV", "postal_code": "89147", "latitude": 36.1161061984, "longitude": -115.2967569351, "stars": 4.5, "review_count": 47, "is_open": 1, "attributes": {"ByAppointmentOnly": "True", "BikeParking": "True", "RestaurantsPriceRange2": "2", "BusinessParking": {"garage": "False", "street": "False", "validated": "False", "lot": "True", "valet": "False"}, "BusinessAcceptsCreditCards": "True", "GoodForKids": "True"}, "categories": "Beauty & Spas, Hair Extensions, Hair Stylists, Hair Salons", "hours": {"Tuesday": "11:0-20:0", "Wednesday": "11:0-20:0", "Thursday": "11:0-20:0", "Friday": "11:0-20:0", "Saturday": "11:0-20:0"}}
{"business_id": "x0R0DPvH4RWNrPltI4DFTw", "name": "Pampered and Polished Nails", "address": "4237 W Bell Rd", "city": "Phoenix", "state": "AZ", "postal_code": "85053", "latitude": 33.6392694, "longitude": -112.1502928, "stars": 3.0, "review_count": 15, "is_open": 0, "attributes": {"BusinessAcceptsCreditCards": "True", "ByAppointmentOnly": "False", "RestaurantsPriceRange2": "2", "BusinessParking": {"garage": "False", "street": "False", "validated": "False", "lot": "True", "valet": "False"}, "BikeParking": "True"}, "categories": "Nail Salons, Beauty & Spas", "hours": {"Tuesday": "10:0-19:0", "Wednesday": "10:0-19:0", "Thursday": "10:0-19:0", "Friday": "10:0-19:0", "Saturday": "10:0-19:0", "Sunday": "10:0-17:0"}}
{"business_id": "4tjKsIaBXCDUP9PL82Vu_A", "name": "The Red Door Salon & Spa", "address": "2502 E Camelback Rd, Ste 215", "city": "Phoenix", "state": "AZ", "postal_code": "85016", "latitude": 33.510296548, "longitude": -112.0271426439, "stars": 4.0, "review_count": 96, "is_open": 1, "attributes": {"BusinessAcceptsCreditCards": "True", "BusinessParking": {"garage": "False", "street": "False", "validated": "True", "lot": "False", "valet": "False"}, "AcceptsInsurance": "False", "WheelchairAccessible": "True", "ByAppointmentOnly": "True", "BikeParking": "True", "RestaurantsPriceRange2": "3"}, "categories": "Day Spas, Beauty & Spas, Hair Salons, Massage, Skin Care", "hours": {"Monday": "9:0-18:0", "Tuesday": "9:0-18:0", "Wednesday": "9:0-19:0", "Thursday": "9:0-19:0", "Friday": "9:0-19:0", "Saturday": "8:0-18:0", "Sunday": "9:0-17:0"}}
{"business_id": "KAhavksKQwKbMzZHiNOyOQ", "name": "Gino's Restaurant", "address": "540 State St", "city": "Madison", "state": "WI", "postal_code": "53703", "latitude": 43.075131, "longitude": -89.394445, "stars": 3.5, "review_count": 38, "is_open": 0, "attributes": {"RestaurantsReservations": "True", "RestaurantsDelivery": "True", "NoiseLevel": "average", "OutdoorSeating": "True", "Alcohol": "full_bar", "Caters": "True", "RestaurantsTakeOut": "True", "RestaurantsPriceRange2": "2", "BusinessAcceptsCreditCards": "True", "RestaurantsGoodForGroups": "True", "Ambience": {"romantic": "False", "intimate": "False", "touristy": "False", "hipster": "False", "divey": "False", "classy": "False", "trendy": "False", "upscale": "False", "casual": "True"}, "RestaurantsAttire": "casual", "BYOBCorkage": "no", "BusinessParking": {"garage": "False", "street": "True", "validated": "False", "lot": "False", "valet": "False"}, "HasTV": "True", "GoodForKids": "True"}, "categories": "Italian, Restaurants, Pizza", "hours": {"Monday": "11:0-22:0", "Tuesday": "11:0-22:0", "Wednesday": "11:0-22:0", "Thursday": "11:0-22:0", "Friday": "11:0-23:0", "Saturday": "11:0-23:0", "Sunday": "11:0-22:0"}}
{"business_id": "Hdzo5ggPswyv-8ZlW0PVLw", "name": "Gelato 64", "address": "2095 N Dobson Rd", "city": "Chandler", "state": "AZ", "postal_code": "85224", "latitude": 33.3372236, "longitude": -111.8753378, "stars": 4.0, "review_count": 140, "is_open": 0, "attributes": {"WiFi": "free", "BusinessParking": {"garage": "False", "street": "False", "validated": "False", "lot": "True", "valet": "False"}, "RestaurantsPriceRange2": "1", "BusinessAcceptsCreditCards": "True", "BikeParking": "True", "Caters": "True", "RestaurantsTakeOut": "True"}, "categories": "Coffee & Tea, Wedding Planning, Food, Event Planning & Services, Ice Cream & Frozen Yogurt, Party & Event Planning, Gelato", "hours": {"Monday": "11:30-22:0", "Tuesday": "11:30-22:0", "Wednesday": "11:30-22:0", "Thursday": "11:30-22:0", "Friday": "11:30-22:0", "Saturday": "11:30-22:0", "Sunday": "11:30-22:0"}}
{"business_id": "nm5yx8yvJNJYVjaRPwjnsw", "name": "Misaki", "address": "860 Saw Mill Run Blvd", "city": "Pittsburgh", "state": "PA", "postal_code": "15226", "latitude": 40.411302, "longitude": -80.007324, "stars": 3.0, "review_count": 44, "is_open": 0, "attributes": {"RestaurantsTableService": "True", "Ambience": {"romantic": "False", "intimate": "False", "touristy": "False", "hipster": "False", "divey": "False", "classy": "False", "trendy": "False", "upscale": "False", "casual": "True"}, "BusinessParking": {"garage": "False", "street": "False", "validated": "False", "lot": "True", "valet": "False"}, "BusinessAcceptsCreditCards": "True", "RestaurantsAttire": "casual", "RestaurantsPriceRange2": "2", "Alcohol": "full_bar", "GoodForMeal": {"dessert": "False", "latenight": "False", "lunch": "True", "dinner": "True", "brunch": "False", "breakfast": "False"}, "WiFi": "no", "RestaurantsTakeOut": "True", "OutdoorSeating": "False", "RestaurantsGoodForGroups": "True", "NoiseLevel": "average", "HasTV": "False", "RestaurantsDelivery": "False", "GoodForKids": "True", "RestaurantsReservations": "True", "Caters": "True"}, "categories": "Buffets, Restaurants", "hours": {"Monday": "11:0-22:0", "Tuesday": "11:0-22:0", "Wednesday": "11:0-22:0", "Thursday": "11:0-22:0", "Friday": "11:0-23:0", "Saturday": "11:0-23:0", "Sunday": "11:0-22:0"}}
{"business_id": "Xf4qG-Ob_dC3B8ZPtW38Fg", "name": "Exquisite Air Services LLC", "address": "7942 W Bell Rd, Ste C5-242", "city": "Glendale", "state": "AZ", "postal_code": "85308", "latitude": 33.6384745917, "longitude": -112.2312463447, "stars": 1.5, "review_count": 11, "is_open": 1, "attributes": {"BusinessAcceptsCreditCards": "True"}, "categories": "Home Services, Heating & Air Conditioning/HVAC", "hours": {}}
{"business_id": "hXzoNgpkC86K_Jfg_zMHvA", "name": "PHO KC", "address": "18555 N 59th Ave, Ste 130", "city": "Glendale", "state": "AZ", "postal_code": "85308", "latitude": 33.6524694411, "longitude": -112.185678981, "stars": 4.5, "review_count": 96, "is_open": 1, "attributes": {"Alcohol": "none", "BikeParking": "True", "WiFi": "free", "GoodForKids": "True", "Caters": "False", "BusinessAcceptsCreditCards": "True", "HasTV": "True", "BusinessParking": {"garage": "False", "street": "False", "validated": "False", "lot": "False", "valet": "False"}, "OutdoorSeating": "True", "Ambience": {"touristy": "False", "hipster": "False", "romantic": "False", "divey": "False", "intimate": "False", "trendy": "False", "upscale": "False", "classy": "False", "casual": "True"}, "RestaurantsAttire": "casual", "RestaurantsDelivery": "False", "RestaurantsTakeOut": "True", "RestaurantsReservations": "True", "RestaurantsGoodForGroups": "True", "RestaurantsPriceRange2": "1", "GoodForMeal": {"dessert": "False", "latenight": "False", "lunch": "True", "dinner": "True", "brunch": "True", "breakfast": "False"}}, "categories": "Vietnamese, Restaurants", "hours": {"Monday": "0:0-0:0", "Tuesday": "9:0-21:0", "Wednesday": "9:0-21:0", "Thursday": "9:0-21:0", "Friday": "9:0-21:0", "Saturday": "9:0-21:0", "Sunday": "9:0-20:0"}}
{"business_id": "GiTv0gFXtYFQAzCXnPvepQ", "name": "Chili's", "address": "5521 Westpark Dr", "city": "Charlotte", "state": "NC", "postal_code": "28217", "latitude": 35.1621387, "longitude": -80.8868514, "stars": 2.5, "review_count": 48, "is_open": 1, "attributes": {"WiFi": "no", "Alcohol": "full_bar", "Corkage": "False", "RestaurantsAttire": "casual", "OutdoorSeating": "False", "NoiseLevel": "very_loud", "HasTV": "True", "Ambience": {"romantic": "False", "intimate": "False", "classy": "False", "hipster": "False", "divey": "False", "touristy": "False", "trendy": "False", "upscale": "False", "casual": "False"}, "GoodForKids": "True", "HappyHour": "True", "BYOBCorkage": "yes_free", "RestaurantsTableService": "True", "RestaurantsTakeOut": "True", "RestaurantsPriceRange2": "2", "BusinessAcceptsCreditCards": "True", "BusinessParking": {"garage": "False", "street": "False", "validated": "False", "lot": "True", "valet": "False"}, "RestaurantsDelivery": "False", "BikeParking": "False", "RestaurantsReservations": "False", "BYOB": "False", "WheelchairAccessible": "True", "GoodForDancing": "False", "RestaurantsGoodForGroups": "True", "Music": {"dj": "False", "background_music": "False", "no_music": "False", "jukebox": "False", "live": "False", "video": "False", "karaoke": "False"}, "Caters": "False", "GoodForMeal": {"dessert": "False", "latenight": "False", "lunch": "True", "dinner": "True", "brunch": "False", "breakfast": "False"}, "CoatCheck": "False"}, "categories": "Restaurants, American (Traditional), American (New), Tex-Mex, Bars, Nightlife", "hours": {"Monday": "11:0-23:0", "Tuesday": "11:0-23:0", "Wednesday": "11:0-23:0", "Thursday": "11:0-23:0", "Friday": "11:0-0:0", "Saturday": "11:0-0:0", "Sunday": "11:0-23:0"}}
{"business_id": "zfOum9_rEhaLAqoAV3nYaQ", "name": "Naya Mediterranean Cuisine", "address": "8877 N Scottsdale Rd, Ste 402", "city": "Scottsdale", "state": "AZ", "postal_code": "85253", "latitude": 33.5659638976, "longitude": -111.9250339642, "stars": 4.0, "review_count": 97, "is_open": 0, "attributes": {"Music": {"dj": "False"}, "Ambience": {"romantic": "False", "intimate": "False", "classy": "False", "hipster": "False", "divey": "False", "touristy": "False", "trendy": "True", "upscale": "False", "casual": "False"}, "Caters": "True", "NoiseLevel": "average", "Smoking": "no", "BikeParking": "True", "GoodForKids": "True", "WheelchairAccessible": "True", "RestaurantsReservations": "True", "GoodForDancing": "False", "CoatCheck": "False", "BusinessParking": {"garage": "False", "street": "False", "validated": "False", "lot": "True", "valet": "False"}, "BusinessAcceptsCreditCards": "True", "RestaurantsDelivery": "False", "RestaurantsGoodForGroups": "True", "HasTV": "True", "RestaurantsTableService": "True", "RestaurantsAttire": "casual", "WiFi": "no", "Alcohol": "full_bar", "HappyHour": "True", "OutdoorSeating": "True", "BestNights": {"monday": "False", "tuesday": "False", "friday": "True", "wednesday": "False", "thursday": "False", "sunday": "True", "saturday": "True"}, "RestaurantsPriceRange2": "2", "GoodForMeal": {"dessert": "False", "latenight": "False", "lunch": "False", "dinner": "True", "breakfast": "False", "brunch": "False"}, "RestaurantsTakeOut": "True"}, "categories": "Specialty Food, Food, Bars, Italian, Nightlife, Ethnic Food, Restaurants, Cocktail Bars, Mediterranean", "hours": {"Monday": "11:0-21:0", "Tuesday": "11:0-21:0", "Wednesday": "11:0-21:0", "Thursday": "11:0-21:0", "Friday": "11:0-22:0", "Saturday": "11:0-22:0", "Sunday": "11:0-21:0"}}
{"business_id": "hZzwkAJG92KkszWO8PoOQA", "name": "Fernando's", "address": "2 Ppg Pl Food Ct", "city": "Pittsburgh", "state": "PA", "postal_code": "15222", "latitude": 40.4437123888, "longitude": -79.9953632967, "stars": 4.0, "review_count": 7, "is_open": 0, "attributes": {"HasTV": "True", "NoiseLevel": "average", "Ambience": {"romantic": "False", "intimate": "False", "touristy": "False", "hipster": "False", "divey": "False", "classy": "False", "trendy": "False", "upscale": "False", "casual": "False"}, "GoodForKids": "True", "RestaurantsPriceRange2": "1", "RestaurantsTakeOut": "True", "BusinessAcceptsCreditCards": "True", "BusinessParking": {"garage": "False", "street": "False", "validated": "False", "lot": "False", "valet": "False"}, "OutdoorSeating": "False", "RestaurantsGoodForGroups": "False", "Alcohol": "none", "RestaurantsReservations": "False", "RestaurantsAttire": "casual"}, "categories": "Fast Food, Sandwiches, Restaurants", "hours": {"Monday": "10:0-15:30", "Tuesday": "10:0-15:30", "Wednesday": "10:0-15:30", "Thursday": "10:0-15:30", "Friday": "10:0-15:30"}}
{"business_id": "Iw9Yzc6yBBsGQNSaD9U-Nw", "name": "Midas", "address": "7575 Mcknight Road", "city": "Pittsburgh", "state": "PA", "postal_code": "15237", "latitude": 40.5436743, "longitude": -80.0148635, "stars": 2.0, "review_count": 8, "is_open": 1, "attributes": {"BusinessAcceptsCreditCards": "True"}, "categories": "Automotive, Oil Change Stations, Auto Repair, Tires", "hours": {"Monday": "7:30-18:0", "Tuesday": "7:30-18:0", "Wednesday": "7:30-18:0", "Thursday": "7:30-18:0", "Friday": "7:30-18:0", "Saturday": "7:30-18:0"}}
{"business_id": "3-aEgS7X2jrbxA7sA1nARw", "name": "La Flor De Calabaza", "address": "705 N 1st St, Ste 110", "city": "Phoenix", "state": "AZ", "postal_code": "85004", "latitude": 33.4559491, "longitude": -112.072089, "stars": 3.0, "review_count": 90, "is_open": 1, "attributes": {"RestaurantsAttire": "casual", "RestaurantsPriceRange2": "2", "OutdoorSeating": "True", "RestaurantsTableService": "True", "GoodForMeal": {"dessert": "True", "latenight": "False", "lunch": "True", "dinner": "False", "brunch": "False", "breakfast": "False"}, "BestNights": {"monday": "False", "tuesday": "False", "friday": "True", "wednesday": "False", "thursday": "False", "sunday": "False", "saturday": "False"}, "RestaurantsTakeOut": "True", "GoodForDancing": "True", "RestaurantsReservations": "True", "NoiseLevel": "average", "HappyHour": "True", "Smoking": "outdoor", "HasTV": "True", "Alcohol": "full_bar", "RestaurantsGoodForGroups": "True", "BusinessAcceptsBitcoin": "False", "Caters": "True", "BusinessAcceptsCreditCards": "True", "Music": {"dj": "False", "background_music": "False", "no_music": "False", "jukebox": "False", "live": "True", "video": "False", "karaoke": "False"}, "WiFi": "free", "BusinessParking": {"garage": "False", "street": "False", "validated": "False", "lot": "True", "valet": "False"}, "WheelchairAccessible": "True", "DogsAllowed": "True", "GoodForKids": "False", "Ambience": {"romantic": "False", "intimate": "False", "classy": "False", "hipster": "False", "divey": "False", "touristy": "False", "trendy": "False", "upscale": "False", "casual": "True"}, "CoatCheck": "False", "BikeParking": "True", "RestaurantsDelivery": "True"}, "categories": "Breakfast & Brunch, Lounges, Nightlife, Latin American, Mexican, Bars, Restaurants", "hours": {"Tuesday": "17:0-22:0", "Wednesday": "17:0-23:0", "Thursday": "17:0-2:0", "Friday": "17:0-2:0", "Saturday": "17:0-2:0", "Sunday": "10:0-23:0"}}
{"business_id": "k2b3niokS_tosjah_rzCPw", "name": "Metro Pizza", "address": "6720 Sky Pointe Dr", "city": "Las Vegas", "state": "NV", "postal_code": "89131", "latitude": 36.2836689, "longitude": -115.2702841, "stars": 3.5, "review_count": 303, "is_open": 1, "attributes": {"Caters": "True", "HasTV": "True", "RestaurantsTakeOut": "True", "Ambience": {"romantic": "False", "intimate": "False", "touristy": "False", "hipster": "False", "divey": "False", "classy": "False", "trendy": "False", "upscale": "False", "casual": "True"}, "BikeParking": "True", "RestaurantsPriceRange2": "2", "RestaurantsAttire": "casual", "BusinessAcceptsCreditCards": "True", "GoodForMeal": {"dessert": "False", "latenight": "False", "lunch": "True", "dinner": "True", "brunch": "False", "breakfast": "False"}, "RestaurantsReservations": "False", "NoiseLevel": "average", "BusinessParking": {"garage": "False", "street": "False", "validated": "False", "lot": "True", "valet": "False"}, "WiFi": "no", "GoodForKids": "True", "RestaurantsGoodForGroups": "True", "OutdoorSeating": "True", "RestaurantsDelivery": "True", "Alcohol": "beer_and_wine"}, "categories": "Restaurants, Pizza", "hours": {"Monday": "11:0-22:0", "Tuesday": "11:0-22:0", "Wednesday": "11:0-22:0", "Thursday": "11:0-22:0", "Friday": "11:0-22:0", "Saturday": "11:0-22:0", "Sunday": "11:0-22:0"}}
{"business_id": "QS3QxI7u5PRdtbGgI0-UsA", "name": "Sakana Sushi & Grill", "address": "6989 N Hayden Rd, Ste A12", "city": "Scottsdale", "state": "AZ", "postal_code": "85250", "latitude": 33.5380294431, "longitude": -111.9056757902, "stars": 4.0, "review_count": 347, "is_open": 1, "attributes": {"RestaurantsAttire": "casual", "OutdoorSeating": "False", "BYOBCorkage": "no", "RestaurantsTakeOut": "True", "Corkage": "True", "RestaurantsDelivery": "False", "RestaurantsReservations": "False", "GoodForMeal": {"dessert": "False", "latenight": "False", "lunch": "True", "dinner": "True", "brunch": "False", "breakfast": "False"}, "RestaurantsGoodForGroups": "True", "GoodForKids": "True", "BusinessAcceptsCreditCards": "True", "Alcohol": "beer_and_wine", "BikeParking": "False", "BusinessParking": {"garage": "False", "street": "False", "validated": "False", "lot": "True", "valet": "False"}, "RestaurantsPriceRange2": "2", "Caters": "False", "NoiseLevel": "average", "WiFi": "no", "Ambience": {"romantic": "False", "intimate": "False", "touristy": "False", "hipster": "False", "divey": "False", "classy": "False", "trendy": "False", "upscale": "False", "casual": "True"}, "HasTV": "True"}, "categories": "Asian Fusion, Restaurants, Seafood, Sushi Bars, Japanese", "hours": {"Monday": "0:0-0:0", "Tuesday": "17:30-21:0", "Wednesday": "17:30-21:0", "Thursday": "17:30-21:0", "Friday": "17:0-22:0", "Saturday": "11:0-22:0", "Sunday": "11:0-21:0"}}
{"business_id": "AMN3Sgns9tB2x-b3eWk0qQ", "name": "Noodles Ranch", "address": "2765 N Scottsdale Rd, Ste 107", "city": "Scottsdale", "state": "AZ", "postal_code": "85257", "latitude": 33.4793671, "longitude": -111.9247231, "stars": 4.0, "review_count": 457, "is_open": 1, "attributes": {"RestaurantsReservations": "True", "RestaurantsGoodForGroups": "True", "BusinessAcceptsCreditCards": "True", "Ambience": {"romantic": "False", "intimate": "False", "touristy": "False", "hipster": "False", "divey": "False", "classy": "False", "trendy": "False", "upscale": "False", "casual": "True"}, "RestaurantsPriceRange2": "2", "OutdoorSeating": "False", "Caters": "True", "Corkage": "False", "GoodForMeal": {"dessert": "False", "latenight": "False", "lunch": "True", "dinner": "True", "brunch": "False", "breakfast": "False"}, "BikeParking": "True", "RestaurantsAttire": "casual", "RestaurantsTableService": "True", "GoodForKids": "True", "RestaurantsDelivery": "False", "BYOBCorkage": "yes_free", "HasTV": "True", "WiFi": "no", "Alcohol": "beer_and_wine", "BusinessParking": {"garage": "False", "street": "False", "validated": "False", "lot": "False", "valet": "False"}, "RestaurantsTakeOut": "True", "NoiseLevel": "average"}, "categories": "Vietnamese, Restaurants", "hours": {"Monday": "0:0-0:0", "Tuesday": "11:0-20:30", "Wednesday": "11:0-20:30", "Thursday": "11:0-20:30", "Friday": "11:0-20:30", "Saturday": "12:0-20:30"}}
{"business_id": "yGMCl0vYigshkXiZFIDTNw", "name": "Mimi's Cafe", "address": "7450 W Bell Rd", "city": "Glendale", "state": "AZ", "postal_code": "85308", "latitude": 33.6386542, "longitude": -112.219354, "stars": 3.0, "review_count": 184, "is_open": 1, "attributes": {"RestaurantsDelivery": "False", "CoatCheck": "True", "RestaurantsTakeOut": "True", "Alcohol": "full_bar", "GoodForMeal": {"dessert": "False", "latenight": "False", "lunch": "True", "dinner": "False", "brunch": "True", "breakfast": "True"}, "RestaurantsGoodForGroups": "True", "RestaurantsAttire": "casual", "RestaurantsReservations": "True", "GoodForKids": "True", "BusinessParking": {"garage": "False", "street": "False", "validated": "False", "lot": "True", "valet": "False"}, "Caters": "True", "OutdoorSeating": "True", "BusinessAcceptsCreditCards": "True", "RestaurantsPriceRange2": "2", "GoodForDancing": "False", "HasTV": "False", "HappyHour": "True", "BikeParking": "True", "Music": {"dj": "False", "background_music": "False", "no_music": "False", "jukebox": "False", "live": "False", "video": "False", "karaoke": "False"}, "BestNights": {"monday": "False", "tuesday": "True", "friday": "False", "wednesday": "True", "thursday": "True", "sunday": "False", "saturday": "False"}, "Ambience": {"romantic": "False", "intimate": "False", "classy": "False", "hipster": "False", "divey": "False", "touristy": "False", "trendy": "False", "upscale": "False", "casual": "True"}, "NoiseLevel": "average", "WiFi": "free"}, "categories": "Nightlife, Restaurants, American (Traditional), Wine Bars, Bars, Breakfast & Brunch, French", "hours": {"Monday": "7:0-21:0", "Tuesday": "7:0-21:0", "Wednesday": "7:0-21:0", "Thursday": "7:0-21:0", "Friday": "7:0-22:0", "Saturday": "7:0-22:0", "Sunday": "7:0-21:0"}}
{"business_id": "rwscnQMpddjkVNaJQhNuHw", "name": "Birrieria Obregon", "address": "2500 N 35th Ave", "city": "Phoenix", "state": "AZ", "postal_code": "85009", "latitude": 33.4753533, "longitude": -112.1348711, "stars": 4.0, "review_count": 24, "is_open": 1, "attributes": {"HasTV": "True", "RestaurantsReservations": "False", "WiFi": "no", "OutdoorSeating": "False", "Ambience": {"touristy": "False", "hipster": "False", "romantic": "False", "divey": "False", "intimate": "False", "trendy": "False", "upscale": "False", "classy": "False", "casual": "False"}, "NoiseLevel": "average", "RestaurantsDelivery": "False", "BusinessAcceptsCreditCards": "True", "BusinessParking": {"garage": "False", "street": "False", "validated": "False", "lot": "False", "valet": "False"}, "GoodForKids": "True", "RestaurantsAttire": "casual", "RestaurantsTakeOut": "True", "RestaurantsPriceRange2": "1", "GoodForMeal": {"dessert": "False", "latenight": "False", "lunch": "False", "dinner": "False", "brunch": "True", "breakfast": "False"}, "RestaurantsGoodForGroups": "True"}, "categories": "Mexican, Restaurants", "hours": {}}
{"business_id": "idF2DJg-WBk4eo2yY_7sHA", "name": "Cave Creek Tap Haus", "address": "6900 E Cave Creek Rd", "city": "Cave Creek", "state": "AZ", "postal_code": "85331", "latitude": 33.8308826, "longitude": -111.9329429, "stars": 2.5, "review_count": 84, "is_open": 0, "attributes": {"RestaurantsPriceRange2": "2", "OutdoorSeating": "True", "RestaurantsTakeOut": "True", "RestaurantsAttire": "casual", "RestaurantsDelivery": "False", "RestaurantsGoodForGroups": "True", "Caters": "False", "BusinessAcceptsCreditCards": "True", "GoodForKids": "False", "NoiseLevel": "average", "Alcohol": "full_bar", "BikeParking": "True", "RestaurantsReservations": "False", "Ambience": {"romantic": "False", "intimate": "False", "touristy": "False", "hipster": "False", "divey": "False", "classy": "False", "trendy": "False", "upscale": "False", "casual": "True"}, "BusinessParking": {"garage": "False", "street": "False", "validated": "False", "lot": "True", "valet": "False"}, "WiFi": "no", "HasTV": "True"}, "categories": "Restaurants, American (New)", "hours": {"Monday": "11:0-22:0", "Tuesday": "11:0-22:0", "Wednesday": "11:0-22:0", "Thursday": "11:0-22:0", "Friday": "11:0-0:0", "Saturday": "11:0-0:0", "Sunday": "11:0-22:0"}}
{"business_id": "iW0_acsRQtjlpE_8O6l1_Q", "name": "The Roman Candle Pizzeria", "address": "2685 Research Park Dr", "city": "Fitchburg", "state": "WI", "postal_code": "53711", "latitude": 43.0003778, "longitude": -89.4258729, "stars": 3.0, "review_count": 56, "is_open": 1, "attributes": {"WheelchairAccessible": "True", "GoodForKids": "True", "BusinessParking": {"garage": "False", "street": "False", "validated": "False", "lot": "True", "valet": "False"}, "HasTV": "False", "Caters": "True", "OutdoorSeating": "True", "Alcohol": "beer_and_wine", "RestaurantsDelivery": "True", "RestaurantsAttire": "casual", "RestaurantsTakeOut": "True", "BikeParking": "True", "WiFi": "free", "RestaurantsTableService": "True", "RestaurantsPriceRange2": "2", "Ambience": {"romantic": "False", "intimate": "False", "touristy": "False", "hipster": "False", "divey": "False", "classy": "False", "trendy": "False", "upscale": "False", "casual": "True"}, "BusinessAcceptsCreditCards": "True", "RestaurantsGoodForGroups": "True", "NoiseLevel": "average", "RestaurantsReservations": "False", "GoodForMeal": {"dessert": "False", "latenight": "False", "lunch": "True", "dinner": "True", "brunch": "False", "breakfast": "False"}}, "categories": "Restaurants, Pizza", "hours": {"Monday": "11:0-20:0", "Tuesday": "11:0-20:0", "Wednesday": "11:0-20:0", "Thursday": "11:0-20:0", "Friday": "11:0-21:0", "Saturday": "11:0-21:0", "Sunday": "11:0-20:0"}}
{"business_id": "mlm2_qc912RAssglxB8h7Q", "name": "Bankier Apartments", "address": "406 E Green St", "city": "Champaign", "state": "IL", "postal_code": "61820", "latitude": 40.1104486, "longitude": -88.2329057, "stars": 2.5, "review_count": 19, "is_open": 1, "attributes": {"ByAppointmentOnly": "False", "BusinessAcceptsCreditCards": "True"}, "categories": "Home Services, Real Estate, Apartments", "hours": {"Monday": "8:0-18:0", "Tuesday": "8:0-18:0", "Wednesday": "8:0-18:0", "Thursday": "8:0-18:0", "Friday": "8:0-18:0", "Saturday": "10:0-16:0"}}
{"business_id": "pvKp4m3eFeHv15kYZaq1Bw", "name": "Papa John's", "address": "113 Cavasina Dr", "city": "Canonsburd", "state": "PA", "postal_code": "15317", "latitude": 40.2634088, "longitude": -80.1738737, "stars": 1.5, "review_count": 10, "is_open": 1, "attributes": {"RestaurantsPriceRange2": "1"}, "categories": "Restaurants, Pizza", "hours": {}}
{"business_id": "zRV7bzP_CfTg-_R9U-VsVg", "name": "Visulite Theatre", "address": "1615 Elizabeth Ave", "city": "Charlotte", "state": "NC", "postal_code": "28204", "latitude": 35.2135934, "longitude": -80.8259927, "stars": 4.0, "review_count": 57, "is_open": 1, "attributes": {"NoiseLevel": "loud", "BusinessAcceptsCreditCards": "True", "GoodForDancing": "True", "OutdoorSeating": "False", "Alcohol": "full_bar", "RestaurantsGoodForGroups": "True", "BusinessParking": {"garage": "False", "street": "True", "validated": "False", "lot": "True", "valet": "False"}, "Music": {"dj": "False", "background_music": "False", "no_music": "False", "jukebox": "False", "live": "True", "video": "False", "karaoke": "False"}, "Ambience": {"touristy": "False", "hipster": "False", "romantic": "False", "divey": "False", "intimate": "False", "trendy": "False", "upscale": "False", "classy": "False", "casual": "True"}, "BestNights": {"monday": "False", "tuesday": "False", "friday": "True", "wednesday": "False", "thursday": "False", "sunday": "False", "saturday": "True"}, "BikeParking": "True", "GoodForKids": "False", "RestaurantsPriceRange2": "2", "HasTV": "False"}, "categories": "Music Venues, Nightlife, Arts & Entertainment, Cinema", "hours": {}}
{"business_id": "_p7cdfl_fscg3TtcaQzh5Q", "name": "Delta Hotels Phoenix Mesa", "address": "200 N Centennial Way", "city": "Mesa", "state": "AZ", "postal_code": "85201", "latitude": 33.4199841745, "longitude": -111.8288787857, "stars": 2.5, "review_count": 83, "is_open": 1, "attributes": {"WiFi": "free", "RestaurantsPriceRange2": "2", "BusinessAcceptsCreditCards": "True"}, "categories": "Hotels & Travel, Event Planning & Services, Hotels", "hours": {"Monday": "0:0-0:0", "Tuesday": "0:0-0:0", "Wednesday": "0:0-0:0", "Thursday": "0:0-0:0", "Friday": "0:0-0:0", "Saturday": "0:0-0:0", "Sunday": "0:0-0:0"}}
{"business_id": "-bd4BQcl1ekgo7avaFngIw", "name": "Eggstasy", "address": "6990 E Shea Blvd", "city": "Scottsdale", "state": "AZ", "postal_code": "85254", "latitude": 33.5825076235, "longitude": -111.9312195007, "stars": 3.5, "review_count": 646, "is_open": 1, "attributes": {"Ambience": {"romantic": "False", "intimate": "False", "classy": "False", "hipster": "False", "divey": "False", "touristy": "False", "trendy": "False", "upscale": "False", "casual": "True"}, "NoiseLevel": "average", "BikeParking": "True", "RestaurantsPriceRange2": "2", "BusinessParking": {"garage": "False", "street": "False", "validated": "False", "lot": "True", "valet": "False"}, "HasTV": "True", "RestaurantsAttire": "casual", "WiFi": "free", "Alcohol": "full_bar", "BusinessAcceptsCreditCards": "True", "RestaurantsReservations": "True", "GoodForKids": "True", "RestaurantsDelivery": "False", "RestaurantsGoodForGroups": "True", "RestaurantsTableService": "True", "OutdoorSeating": "True", "RestaurantsTakeOut": "True", "Caters": "False", "GoodForMeal": {"dessert": "False", "latenight": "False", "lunch": "True", "dinner": "False", "brunch": "True", "breakfast": "True"}, "DogsAllowed": "True"}, "categories": "Diners, Breakfast & Brunch, Restaurants", "hours": {"Monday": "6:30-15:0", "Tuesday": "6:30-15:0", "Wednesday": "6:30-15:0", "Thursday": "6:30-15:0", "Friday": "6:30-15:0", "Saturday": "6:30-15:0", "Sunday": "6:30-15:0"}}
{"business_id": "cmsAFAymfVoBitSF8R6GKw", "name": "Yao Fine Chinese Cuisine", "address": "2487 S Gilbert Rd, Ste 102", "city": "Gilbert", "state": "AZ", "postal_code": "85295", "latitude": 33.30483, "longitude": -111.788866, "stars": 4.0, "review_count": 200, "is_open": 1, "attributes": {"GoodForKids": "True", "BusinessAcceptsCreditCards": "True", "BikeParking": "True", "GoodForMeal": {"dessert": "False", "latenight": "False", "lunch": "True", "dinner": "True", "brunch": "False", "breakfast": "False"}, "HasTV": "True", "NoiseLevel": "average", "RestaurantsAttire": "casual", "OutdoorSeating": "False", "Alcohol": "beer_and_wine", "Ambience": {"romantic": "False", "intimate": "False", "touristy": "False", "hipster": "False", "divey": "False", "classy": "False", "trendy": "False", "upscale": "False", "casual": "True"}, "RestaurantsPriceRange2": "1", "RestaurantsTakeOut": "True", "RestaurantsReservations": "False", "RestaurantsGoodForGroups": "True", "RestaurantsDelivery": "False", "BusinessParking": {"garage": "False", "street": "False", "validated": "False", "lot": "True", "valet": "False"}, "WiFi": "no", "Caters": "True"}, "categories": "Chinese, Restaurants", "hours": {"Monday": "11:0-21:0", "Tuesday": "11:0-21:0", "Wednesday": "11:0-21:0", "Thursday": "11:0-21:0", "Friday": "11:0-21:0", "Saturday": "11:0-21:0", "Sunday": "11:0-21:0"}}
{"business_id": "MDJqm5KN1hFWm4R2VtNIlw", "name": "Waffle House", "address": "8220 Pineville Matthews Rd", "city": "Pineville", "state": "NC", "postal_code": "28134", "latitude": 35.087963, "longitude": -80.858488, "stars": 3.5, "review_count": 33, "is_open": 1, "attributes": {"WiFi": "no", "Caters": "False", "BusinessParking": {"garage": "False", "street": "False", "validated": "False", "lot": "True", "valet": "False"}, "RestaurantsPriceRange2": "1", "BikeParking": "False", "Ambience": {"romantic": "False", "intimate": "False", "classy": "False", "hipster": "False", "divey": "False", "touristy": "False", "trendy": "False", "upscale": "False", "casual": "True"}, "BusinessAcceptsCreditCards": "True", "OutdoorSeating": "False", "GoodForMeal": {"dessert": "False", "latenight": "False", "lunch": "False", "dinner": "False", "brunch": "True", "breakfast": "True"}, "RestaurantsDelivery": "False", "RestaurantsGoodForGroups": "True", "NoiseLevel": "average", "Alcohol": "none", "GoodForKids": "True", "RestaurantsTakeOut": "True", "HasTV": "False", "RestaurantsReservations": "False", "RestaurantsAttire": "casual"}, "categories": "Diners, American (Traditional), Restaurants, Breakfast & Brunch, Waffles, American (New), Fast Food, Burgers", "hours": {"Monday": "0:0-0:0", "Tuesday": "0:0-0:0", "Wednesday": "0:0-0:0", "Thursday": "0:0-0:0", "Friday": "0:0-0:0", "Saturday": "0:0-0:0", "Sunday": "0:0-0:0"}}
{"business_id": "zwHxfpxAliFnNhmCXL4Hdg", "name": "Vistana Condo", "address": "7181 S Durango Dr", "city": "Las Vegas", "state": "NV", "postal_code": "89113", "latitude": 36.058085, "longitude": -115.28114, "stars": 2.5, "review_count": 16, "is_open": 1, "attributes": {"BusinessAcceptsCreditCards": "False"}, "categories": "Apartments, Home Services, Real Estate, Property Management", "hours": {}}
{"business_id": "sDhwuuRKr7Phz_XDYSleAQ", "name": "24 Hour Tire Shop", "address": "15 W Charleston Blvd", "city": "Las Vegas", "state": "NV", "postal_code": "89102", "latitude": 36.1585845, "longitude": -115.1543386, "stars": 3.5, "review_count": 27, "is_open": 1, "attributes": {"BusinessAcceptsCreditCards": "False"}, "categories": "Tires, Automotive", "hours": {"Monday": "0:0-0:0", "Tuesday": "0:0-0:0", "Wednesday": "0:0-0:0", "Thursday": "0:0-0:0", "Friday": "0:0-0:0", "Saturday": "0:0-0:0", "Sunday": "0:0-0:0"}}
{"business_id": "pRXgWOIiQPEbosMrylsdLA", "name": "Chick Rotisserie & Wine Bar", "address": "3943 E Camelback Rd", "city": "Phoenix", "state": "AZ", "postal_code": "85018", "latitude": 33.5097861, "longitude": -111.9965163, "stars": 3.0, "review_count": 42, "is_open": 0, "attributes": {"BusinessAcceptsCreditCards": "True", "GoodForKids": "True", "RestaurantsPriceRange2": "2", "RestaurantsReservations": "True", "HasTV": "True", "Alcohol": "full_bar", "NoiseLevel": "average", "RestaurantsDelivery": "False", "RestaurantsTakeOut": "True", "RestaurantsAttire": "casual", "Ambience": {"romantic": "False", "intimate": "False", "touristy": "False", "hipster": "False", "divey": "False", "classy": "False", "trendy": "False", "upscale": "False", "casual": "True"}, "BusinessParking": {"garage": "False", "street": "False", "validated": "False", "lot": "True", "valet": "False"}, "RestaurantsGoodForGroups": "True", "OutdoorSeating": "True"}, "categories": "Restaurants, American (Traditional), Nightlife, Bars", "hours": {"Monday": "11:0-22:0", "Tuesday": "11:0-22:0", "Wednesday": "11:0-22:0", "Thursday": "11:0-22:0", "Friday": "11:0-22:0", "Saturday": "11:0-22:0", "Sunday": "11:0-22:0"}}
{"business_id": "CmmxYWqyUhe_2B_Qbd2oUw", "name": "4T Nail&Spa", "address": "4929 W Chandler Blvd", "city": "Chandler", "state": "AZ", "postal_code": "85226", "latitude": 33.3048543657, "longitude": -111.9273195416, "stars": 4.0, "review_count": 19, "is_open": 1, "attributes": {"RestaurantsPriceRange2": "2", "BusinessAcceptsCreditCards": "True", "BusinessParking": {"garage": "False", "street": "False", "validated": "False", "lot": "True", "valet": "False"}, "ByAppointmentOnly": "False", "BikeParking": "True", "WheelchairAccessible": "True"}, "categories": "Waxing, Nail Salons, Hair Removal, Beauty & Spas", "hours": {"Tuesday": "9:30-19:0", "Wednesday": "9:30-19:0", "Thursday": "9:30-19:0", "Friday": "9:30-19:0", "Saturday": "9:0-18:0", "Sunday": "11:0-17:0"}}
{"business_id": "iUWou8115_0y66aJdfxfPg", "name": "The Coffee Bean & Tea Leaf", "address": "7407 W Bell Rd, Ste 2", "city": "Peoria", "state": "AZ", "postal_code": "85382", "latitude": 33.6377851, "longitude": -112.2182363, "stars": 4.0, "review_count": 93, "is_open": 1, "attributes": {"BusinessParking": {"garage": "False", "street": "False", "validated": "False", "lot": "False", "valet": "False"}, "Caters": "False", "WiFi": "free", "RestaurantsTakeOut": "True", "OutdoorSeating": "True", "RestaurantsPriceRange2": "1", "BusinessAcceptsCreditCards": "True", "BikeParking": "True"}, "categories": "Food, Coffee & Tea", "hours": {"Monday": "5:30-21:0", "Tuesday": "5:30-21:0", "Wednesday": "5:30-21:0", "Thursday": "5:30-21:0", "Friday": "5:30-21:0", "Saturday": "6:30-21:0", "Sunday": "7:0-20:0"}}
{"business_id": "tcT3oHh_dwi_FYhozw3Ibw", "name": "Bomberos Cafe & Wine Bar", "address": "8801 N Central Ave, Ste 104", "city": "Phoenix", "state": "AZ", "postal_code": "85020", "latitude": 33.5650982, "longitude": -112.0737503, "stars": 4.0, "review_count": 135, "is_open": 0, "attributes": {"RestaurantsGoodForGroups": "True", "Alcohol": "beer_and_wine", "RestaurantsPriceRange2": "2", "RestaurantsTakeOut": "True", "GoodForKids": "False", "RestaurantsDelivery": "False", "RestaurantsAttire": "casual", "RestaurantsReservations": "True", "OutdoorSeating": "True", "BusinessAcceptsCreditCards": "True", "BusinessParking": {"garage": "False", "street": "False", "validated": "False", "lot": "True", "valet": "False"}}, "categories": "Nightlife, Latin American, Wine Bars, Restaurants, Bars, Lounges", "hours": {"Monday": "16:0-23:0", "Tuesday": "16:0-23:0", "Wednesday": "16:0-23:0", "Thursday": "16:0-23:0", "Friday": "16:0-0:0", "Saturday": "11:0-0:0", "Sunday": "11:0-22:0"}}
{"business_id": "-euyrrUnAQpVNmiwRO1ESQ", "name": "Celebrity Skin", "address": "7105 E 1st Ave", "city": "Scottsdale", "state": "AZ", "postal_code": "85251", "latitude": 33.493753, "longitude": -111.928103, "stars": 5.0, "review_count": 55, "is_open": 1, "attributes": {"ByAppointmentOnly": "True", "BusinessParking": {"garage": "False", "street": "True", "validated": "False", "lot": "True", "valet": "False"}, "BusinessAcceptsCreditCards": "True", "RestaurantsPriceRange2": "2", "BikeParking": "True"}, "categories": "Skin Care, Beauty & Spas, Shopping, Health & Medical, Cosmetics & Beauty Supply, Medical Spas", "hours": {"Wednesday": "10:0-18:0", "Thursday": "10:0-19:0", "Friday": "10:0-17:0", "Saturday": "10:0-16:0"}}
{"business_id": "E9QTQ4DOKo1UsGNmMX8sGQ", "name": "Oscar Nails & Spa", "address": "5100 S McClintock Dr, Ste 104", "city": "Tempe", "state": "AZ", "postal_code": "85282", "latitude": 33.3795553, "longitude": -111.911075, "stars": 4.0, "review_count": 64, "is_open": 1, "attributes": {"BikeParking": "True", "BusinessAcceptsCreditCards": "True", "RestaurantsPriceRange2": "2", "ByAppointmentOnly": "False", "BusinessParking": {"garage": "False", "street": "False", "validated": "False", "lot": "False", "valet": "False"}}, "categories": "Beauty & Spas, Nail Salons", "hours": {"Monday": "9:30-19:0", "Tuesday": "9:30-19:0", "Wednesday": "9:30-19:0", "Thursday": "9:30-19:0", "Friday": "9:30-19:0", "Saturday": "9:30-19:0", "Sunday": "10:0-17:0"}}
{"business_id": "7v-2HkyrfYkPf471v4gCmg", "name": "Starbucks", "address": "7400 S. Las Vegas Blvd.", "city": "Las Vegas", "state": "NV", "postal_code": "89123", "latitude": 36.0539460743, "longitude": -115.169012, "stars": 2.0, "review_count": 36, "is_open": 1, "attributes": {"BikeParking": "True", "WiFi": "free", "RestaurantsPriceRange2": "2", "BusinessAcceptsCreditCards": "True", "RestaurantsTakeOut": "True", "OutdoorSeating": "False", "BusinessParking": {"garage": "False", "street": "False", "validated": "False", "lot": "False", "valet": "False"}, "Caters": "False"}, "categories": "Food, Coffee & Tea", "hours": {"Monday": "7:30-21:0", "Tuesday": "7:30-21:0", "Wednesday": "7:30-21:0", "Thursday": "7:30-21:0", "Friday": "7:30-21:0", "Saturday": "7:30-20:0", "Sunday": "7:30-21:0"}}
{"business_id": "9vub2LM7Djy8P-LPumcLXA", "name": "Tacos Chiwas", "address": "1923 E Mcdowell Rd", "city": "Phoenix", "state": "AZ", "postal_code": "85006", "latitude": 33.465551, "longitude": -112.0401151, "stars": 4.5, "review_count": 453, "is_open": 1, "attributes": {"GoodForKids": "True", "RestaurantsTableService": "False", "RestaurantsReservations": "False", "RestaurantsAttire": "casual", "RestaurantsPriceRange2": "1", "NoiseLevel": "average", "OutdoorSeating": "False", "GoodForMeal": {"dessert": "False", "latenight": "False", "lunch": "True", "dinner": "True", "brunch": "False", "breakfast": "False"}, "RestaurantsDelivery": "False", "HasTV": "False", "BikeParking": "True", "WheelchairAccessible": "True", "Caters": "True", "BusinessParking": {"garage": "False", "street": "False", "validated": "False", "lot": "True", "valet": "False"}, "Alcohol": "none", "BusinessAcceptsCreditCards": "True", "WiFi": "no", "RestaurantsTakeOut": "True", "RestaurantsGoodForGroups": "False", "Ambience": {"touristy": "False", "hipster": "False", "romantic": "False", "divey": "False", "intimate": "False", "trendy": "False", "upscale": "False", "classy": "False", "casual": "True"}}, "categories": "Restaurants, Latin American, Mexican, Tacos", "hours": {"Monday": "0:0-0:0", "Tuesday": "10:0-21:0", "Wednesday": "10:0-21:0", "Thursday": "10:0-21:0", "Friday": "10:0-21:0", "Saturday": "10:0-16:0", "Sunday": "10:0-16:0"}}
{"business_id": "ILA41PhErg4bl1royzDX4g", "name": "S & V Urban Italian", "address": "9343 E Shea Blvd, Ste 100", "city": "Scottsdale", "state": "AZ", "postal_code": "85260", "latitude": 33.5813628, "longitude": -111.8796351, "stars": 4.0, "review_count": 105, "is_open": 1, "attributes": {"RestaurantsReservations": "True", "WiFi": "free", "CoatCheck": "False", "Alcohol": "full_bar", "HasTV": "True", "Smoking": "no", "BikeParking": "True", "HappyHour": "True", "BusinessParking": {"garage": "False", "street": "False", "validated": "False", "lot": "True", "valet": "False"}, "NoiseLevel": "average", "RestaurantsDelivery": "True", "DogsAllowed": "False", "BusinessAcceptsCreditCards": "True", "RestaurantsTableService": "True", "BusinessAcceptsBitcoin": "False", "Caters": "True", "OutdoorSeating": "True", "Ambience": {"touristy": "False", "hipster": "False", "romantic": "True", "divey": "False", "intimate": "False", "trendy": "True", "upscale": "True", "classy": "False", "casual": "True"}, "GoodForKids": "True", "RestaurantsGoodForGroups": "True", "RestaurantsPriceRange2": "2", "RestaurantsTakeOut": "True", "WheelchairAccessible": "True", "RestaurantsAttire": "casual", "GoodForMeal": {"dessert": "True", "latenight": "False", "lunch": "True", "dinner": "True", "brunch": "False", "breakfast": "False"}}, "categories": "Nightlife, Bars, Restaurants, Wine Bars, Pizza, Italian", "hours": {"Monday": "11:0-22:0", "Tuesday": "11:0-22:0", "Wednesday": "11:0-22:0", "Thursday": "11:0-22:0", "Friday": "11:0-23:0", "Saturday": "11:0-23:0", "Sunday": "11:0-21:0"}}
{"business_id": "HFDZeMrm13xX5yJvpaRaIQ", "name": "Even Stevens Sandwiches", "address": "384 N Gilbert Rd, Ste 104", "city": "Gilbert", "state": "AZ", "postal_code": "85234", "latitude": 33.3568181, "longitude": -111.7897728, "stars": 4.5, "review_count": 213, "is_open": 0, "attributes": {"WiFi": "free", "Caters": "True", "BusinessParking": {"garage": "True", "street": "True", "validated": "False", "lot": "False", "valet": "False"}, "BusinessAcceptsBitcoin": "False", "Alcohol": "beer_and_wine", "RestaurantsTakeOut": "True", "OutdoorSeating": "False", "RestaurantsGoodForGroups": "True", "NoiseLevel": "average", "HasTV": "False", "RestaurantsAttire": "casual", "WheelchairAccessible": "True", "RestaurantsDelivery": "False", "GoodForMeal": {"dessert": "False", "latenight": "False", "lunch": "True", "dinner": "True", "brunch": "True", "breakfast": "True"}, "RestaurantsTableService": "False", "BikeParking": "True", "RestaurantsReservations": "False", "RestaurantsPriceRange2": "1", "Ambience": {"touristy": "False", "hipster": "True", "romantic": "False", "divey": "False", "intimate": "False", "trendy": "True", "upscale": "False", "classy": "False", "casual": "True"}, "BusinessAcceptsCreditCards": "True", "GoodForKids": "True"}, "categories": "Gluten-Free, Breakfast & Brunch, Sandwiches, Restaurants, Salad", "hours": {"Monday": "0:0-0:0", "Tuesday": "7:0-22:0", "Wednesday": "7:0-22:0", "Thursday": "7:0-22:0", "Friday": "7:0-22:0", "Saturday": "7:0-14:0", "Sunday": "9:0-16:0"}}
{"business_id": "JrrY4v21k7_qYxIidhi-aw", "name": "Kelly's Bar & Lounge", "address": "6012 Penn Cir S", "city": "Pittsburgh", "state": "PA", "postal_code": "15206", "latitude": 40.4599920866, "longitude": -79.9244865083, "stars": 3.5, "review_count": 166, "is_open": 1, "attributes": {"BikeParking": "True", "RestaurantsReservations": "False", "RestaurantsTakeOut": "True", "RestaurantsAttire": "casual", "RestaurantsDelivery": "False", "NoiseLevel": "loud", "RestaurantsPriceRange2": "2", "BusinessParking": {"garage": "False", "street": "True", "validated": "False", "lot": "False", "valet": "False"}, "HappyHour": "True", "Alcohol": "full_bar", "HasTV": "False", "Ambience": {"touristy": "False", "hipster": "True", "romantic": "False", "divey": "False", "intimate": "False", "trendy": "False", "upscale": "False", "classy": "False", "casual": "True"}, "GoodForKids": "False", "GoodForMeal": {"dessert": "False", "latenight": "False", "lunch": "False", "dinner": "False", "brunch": "False", "breakfast": "False"}, "RestaurantsGoodForGroups": "True", "OutdoorSeating": "True", "WiFi": "no", "BusinessAcceptsCreditCards": "True"}, "categories": "Lounges, Nightlife, American (Traditional), Bars, Restaurants", "hours": {"Monday": "11:30-2:0", "Tuesday": "11:30-2:0", "Wednesday": "11:30-2:0", "Thursday": "11:30-2:0", "Friday": "11:30-2:0", "Saturday": "11:30-2:0"}}
{"business_id": "BNDP3up8Ltn7oVXEt4YLqw", "name": "Camille By Manon", "address": "2170 S  Rainbow Blvd", "city": "Las Vegas", "state": "NV", "postal_code": "89146", "latitude": 36.1481125, "longitude": -115.2425536, "stars": 3.5, "review_count": 45, "is_open": 0, "attributes": {"RestaurantsTakeOut": "True", "BikeParking": "True", "BusinessParking": {"garage": "False", "street": "False", "validated": "False", "lot": "True", "valet": "False"}, "BusinessAcceptsCreditCards": "True", "RestaurantsDelivery": "True", "RestaurantsPriceRange2": "1", "WheelchairAccessible": "True"}, "categories": "Food, Bakeries", "hours": {"Tuesday": "8:0-19:0", "Wednesday": "8:0-19:0", "Thursday": "8:0-19:0", "Friday": "8:0-19:0", "Saturday": "8:0-19:0"}}
{"business_id": "giCq1MmW-_S2tvNOAHvJcQ", "name": "Tarbell's The Tavern", "address": "3209 E Camelback Rd", "city": "Phoenix", "state": "AZ", "postal_code": "85018", "latitude": 33.5091229429, "longitude": -112.0126287829, "stars": 4.0, "review_count": 107, "is_open": 1, "attributes": {"Ambience": {"romantic": "False", "intimate": "False", "classy": "False", "hipster": "False", "divey": "False", "touristy": "False", "trendy": "False", "upscale": "False", "casual": "True"}, "GoodForDancing": "False", "RestaurantsGoodForGroups": "True", "RestaurantsTakeOut": "True", "BestNights": {"monday": "False", "tuesday": "False", "friday": "True", "wednesday": "False", "thursday": "True", "sunday": "False", "saturday": "True"}, "BusinessParking": {"garage": "False", "street": "False", "validated": "False", "lot": "True", "valet": "False"}, "Music": {"dj": "False", "background_music": "True", "jukebox": "False", "live": "False", "video": "False", "karaoke": "False"}, "GoodForKids": "False", "NoiseLevel": "average", "Alcohol": "beer_and_wine", "RestaurantsTableService": "True", "BusinessAcceptsCreditCards": "True", "WiFi": "no", "Caters": "True", "HasTV": "True", "RestaurantsDelivery": "False", "RestaurantsAttire": "casual", "HappyHour": "True", "GoodForMeal": {"dessert": "False", "latenight": "False", "lunch": "False", "dinner": "True", "brunch": "False", "breakfast": "False"}, "CoatCheck": "False", "RestaurantsPriceRange2": "2", "BikeParking": "True", "OutdoorSeating": "True", "RestaurantsReservations": "True", "Smoking": "no"}, "categories": "American (Traditional), Lounges, American (New), Mexican, Wine Bars, Restaurants, Nightlife, Bars, Cocktail Bars", "hours": {"Monday": "11:30-21:0", "Tuesday": "11:30-21:0", "Wednesday": "11:30-21:0", "Thursday": "11:30-21:0", "Friday": "11:30-21:0", "Saturday": "11:30-21:0", "Sunday": "12:0-15:0"}}
{"business_id": "bu4F6DI-PVDyM0-o9AGoCQ", "name": "Hertz Car Sales Phoenix", "address": "1147 E Camelback Rd", "city": "Phoenix", "state": "AZ", "postal_code": "85014", "latitude": 33.508914, "longitude": -112.056567, "stars": 4.0, "review_count": 53, "is_open": 1, "attributes": {"BusinessAcceptsCreditCards": "False"}, "categories": "Automotive, Car Dealers", "hours": {"Monday": "10:0-20:0", "Tuesday": "10:0-20:0", "Wednesday": "10:0-20:0", "Thursday": "10:0-20:0", "Friday": "10:0-20:0", "Saturday": "9:0-19:0", "Sunday": "10:0-18:0"}}
{"business_id": "QSGerT1enEKlvJnYkwthHQ", "name": "Claim Jumper Restaurant & Saloon", "address": "10125 W McDowell Rd", "city": "Avondale", "state": "AZ", "postal_code": "85392", "latitude": 33.4630705155, "longitude": -112.2778768672, "stars": 2.5, "review_count": 236, "is_open": 1, "attributes": {"Ambience": {"romantic": "False", "intimate": "False", "touristy": "False", "hipster": "False", "divey": "False", "classy": "False", "trendy": "False", "upscale": "False", "casual": "True"}, "BikeParking": "True", "WiFi": "free", "RestaurantsDelivery": "False", "BusinessParking": {"garage": "False", "street": "False", "validated": "False", "lot": "True", "valet": "False"}, "Alcohol": "full_bar", "Caters": "True", "RestaurantsReservations": "True", "HasTV": "True", "RestaurantsAttire": "casual", "RestaurantsTakeOut": "True", "RestaurantsGoodForGroups": "True", "BusinessAcceptsCreditCards": "True", "NoiseLevel": "average", "OutdoorSeating": "False", "RestaurantsPriceRange2": "2", "GoodForMeal": {"dessert": "False", "latenight": "False", "lunch": "True", "dinner": "True", "brunch": "False", "breakfast": "False"}, "GoodForKids": "True"}, "categories": "Steakhouses, Restaurants, Bars, Nightlife, American (Traditional), Seafood", "hours": {"Monday": "11:0-22:0", "Tuesday": "11:0-22:0", "Wednesday": "11:0-22:0", "Thursday": "11:0-22:0", "Friday": "11:0-23:0", "Saturday": "11:0-23:0", "Sunday": "11:0-22:0"}}
{"business_id": "EJShgTy1lEkp48RLkMt1ag", "name": "Jack-In-the Box Drive Thru", "address": "5447 W Glendale Ave", "city": "Glendale", "state": "AZ", "postal_code": "85301", "latitude": 33.5381734, "longitude": -112.1769763, "stars": 2.0, "review_count": 11, "is_open": 1, "attributes": {"RestaurantsPriceRange2": "1", "Caters": "False", "Alcohol": "none", "GoodForKids": "True", "RestaurantsDelivery": "False", "RestaurantsGoodForGroups": "True", "RestaurantsTakeOut": "True", "WiFi": "no", "RestaurantsAttire": "casual", "OutdoorSeating": "False", "HasTV": "False", "Ambience": {"romantic": "False", "intimate": "False", "classy": "False", "hipster": "False", "divey": "False", "touristy": "False", "trendy": "False", "upscale": "False", "casual": "False"}, "NoiseLevel": "average", "RestaurantsReservations": "False", "BusinessAcceptsCreditCards": "True", "BusinessParking": {"garage": "False", "street": "False", "validated": "False", "lot": "False", "valet": "False"}, "BikeParking": "True"}, "categories": "Burgers, Restaurants", "hours": {}}
{"business_id": "mW4QpvxPAEeiUuMRINqZwg", "name": "Capelli Hair Studio", "address": "3345 E Patrick Ln, Ste 110", "city": "Las Vegas", "state": "NV", "postal_code": "89120", "latitude": 36.0785072, "longitude": -115.1025234, "stars": 4.5, "review_count": 10, "is_open": 0, "attributes": {"BusinessAcceptsCreditCards": "True", "RestaurantsPriceRange2": "2", "BikeParking": "True", "ByAppointmentOnly": "True", "BusinessParking": {"garage": "False", "street": "False", "validated": "False", "lot": "False", "valet": "False"}, "GoodForKids": "True"}, "categories": "Hair Salons, Beauty & Spas", "hours": {"Tuesday": "10:0-18:0", "Wednesday": "10:0-18:0", "Thursday": "10:0-18:0", "Friday": "10:0-18:0", "Saturday": "10:0-18:0"}}
{"business_id": "o6ykIVqT34KgtaWT5WtE3w", "name": "Avondale Toyota", "address": "10005 W Papago Fwy", "city": "Avondale", "state": "AZ", "postal_code": "85323", "latitude": 33.4605162226, "longitude": -112.2764132632, "stars": 4.0, "review_count": 203, "is_open": 1, "attributes": {"BusinessAcceptsCreditCards": "True"}, "categories": "Car Dealers, Auto Repair, Car Rental, Hotels & Travel, Auto Parts & Supplies, Automotive", "hours": {"Monday": "0:0-0:0", "Tuesday": "7:0-21:0", "Wednesday": "7:0-21:0", "Thursday": "7:0-21:0", "Friday": "7:0-21:0", "Saturday": "7:0-21:0", "Sunday": "9:0-18:0"}}
{"business_id": "WZe-1SFcErsOT7gZY_x6wQ", "name": "Denny's", "address": "14799 W Grand Ave", "city": "Surprise", "state": "AZ", "postal_code": "85374", "latitude": 33.6589000674, "longitude": -112.376867598, "stars": 2.5, "review_count": 57, "is_open": 1, "attributes": {"RestaurantsPriceRange2": "1", "RestaurantsDelivery": "False", "Alcohol": "none", "Caters": "False", "BusinessAcceptsCreditCards": "True", "RestaurantsAttire": "casual", "HasTV": "True", "BikeParking": "True", "NoiseLevel": "average", "OutdoorSeating": "False", "RestaurantsTableService": "True", "Ambience": {"romantic": "False", "intimate": "False", "classy": "False", "hipster": "False", "divey": "False", "touristy": "False", "trendy": "False", "upscale": "False", "casual": "True"}, "RestaurantsTakeOut": "True", "BusinessParking": {"garage": "False", "street": "False", "validated": "False", "lot": "True", "valet": "False"}, "GoodForKids": "True", "RestaurantsGoodForGroups": "True", "GoodForMeal": {"dessert": "False", "latenight": "True", "lunch": "False", "dinner": "False", "brunch": "False", "breakfast": "True"}, "WiFi": "free", "RestaurantsReservations": "False"}, "categories": "Restaurants, Diners, Breakfast & Brunch, American (Traditional)", "hours": {"Monday": "0:0-0:0", "Tuesday": "0:0-0:0", "Wednesday": "0:0-0:0", "Thursday": "0:0-0:0", "Friday": "0:0-0:0", "Saturday": "0:0-0:0", "Sunday": "0:0-0:0"}}
{"business_id": "IcHVYlgNGR-Zz8fnceiJ6g", "name": "The Monkey Bar", "address": "703 Clairton Blvd", "city": "Pittsburgh", "state": "PA", "postal_code": "15236", "latitude": 40.327059139, "longitude": -79.9442769808, "stars": 4.0, "review_count": 26, "is_open": 1, "attributes": {"Caters": "False", "WiFi": "free", "RestaurantsTakeOut": "True", "GoodForDancing": "False", "RestaurantsDelivery": "False", "GoodForKids": "False", "BusinessAcceptsCreditCards": "True", "BikeParking": "False", "Music": {"dj": "False", "background_music": "False", "no_music": "False", "jukebox": "True", "live": "False", "video": "False", "karaoke": "False"}, "RestaurantsReservations": "False", "NoiseLevel": "very_loud", "HasTV": "True", "RestaurantsPriceRange2": "1", "BusinessParking": {"garage": "False", "street": "False", "validated": "False", "lot": "False", "valet": "False"}, "RestaurantsGoodForGroups": "True", "Alcohol": "full_bar", "OutdoorSeating": "True", "Ambience": {"romantic": "False", "intimate": "False", "classy": "False", "hipster": "False", "divey": "False", "touristy": "False", "trendy": "False", "upscale": "False", "casual": "False"}, "GoodForMeal": {"dessert": "False", "latenight": "False", "lunch": "False", "dinner": "False", "brunch": "False", "breakfast": "False"}, "RestaurantsAttire": "casual", "HappyHour": "True"}, "categories": "Restaurants, American (Traditional), Bars, Nightlife", "hours": {"Monday": "11:0-2:0", "Tuesday": "11:0-2:0", "Wednesday": "11:0-2:0", "Thursday": "11:0-2:0", "Friday": "11:0-2:0", "Saturday": "11:0-2:0", "Sunday": "11:0-2:0"}}
{"business_id": "qOuyItOatd-TF5kzhUlA9g", "name": "Starbucks", "address": "4815 E. Carfree highway", "city": "Cave Creek", "state": "AZ", "postal_code": "85331", "latitude": 33.79740989, "longitude": -111.9769144, "stars": 4.5, "review_count": 11, "is_open": 1, "attributes": {"RestaurantsTakeOut": "True", "OutdoorSeating": "True", "WiFi": "free", "RestaurantsPriceRange2": "2", "BusinessAcceptsCreditCards": "True", "BikeParking": "True", "Caters": "False", "BusinessParking": {"garage": "False", "street": "False", "validated": "False", "lot": "True", "valet": "False"}}, "categories": "Restaurants, Food, Coffee & Tea", "hours": {"Monday": "5:0-20:0", "Tuesday": "5:0-20:0", "Wednesday": "5:0-20:0", "Thursday": "5:0-20:0", "Friday": "5:0-20:0", "Saturday": "5:0-20:0", "Sunday": "5:0-20:0"}}
{"business_id": "H2Chxto2e6dHTDJ8-s3-pQ", "name": "Roberto's Taco Shop", "address": "2685 S Eastern Ave", "city": "Las Vegas", "state": "NV", "postal_code": "89169", "latitude": 36.1410796647, "longitude": -115.1193113918, "stars": 3.0, "review_count": 64, "is_open": 1, "attributes": {"OutdoorSeating": "False", "WiFi": "no", "RestaurantsGoodForGroups": "True", "Alcohol": "none", "Caters": "True", "RestaurantsDelivery": "False", "RestaurantsPriceRange2": "1", "BusinessAcceptsCreditCards": "True", "RestaurantsReservations": "False", "RestaurantsAttire": "casual", "Ambience": {"touristy": "False", "hipster": "False", "romantic": "False", "divey": "False", "intimate": "False", "trendy": "False", "upscale": "False", "classy": "False", "casual": "True"}, "GoodForKids": "True", "RestaurantsTakeOut": "True", "HasTV": "False", "GoodForMeal": {"dessert": "False", "latenight": "True", "lunch": "True", "dinner": "True", "brunch": "False", "breakfast": "True"}, "BYOBCorkage": "no", "BikeParking": "True", "NoiseLevel": "average", "BusinessParking": {"garage": "False", "street": "False", "validated": "False", "lot": "True", "valet": "False"}}, "categories": "Mexican, Fast Food, Restaurants", "hours": {}}
{"business_id": "ncXQtqJT5Gk1QztwTrBrgw", "name": "New York Bagels 'N Bialys", "address": "10320 N Scottsdale Rd", "city": "Scottsdale", "state": "AZ", "postal_code": "85253", "latitude": 33.5796797, "longitude": -111.9275444, "stars": 4.0, "review_count": 307, "is_open": 1, "attributes": {"Caters": "True", "Alcohol": "full_bar", "RestaurantsDelivery": "False", "HasTV": "True", "GoodForKids": "True", "BikeParking": "True", "RestaurantsGoodForGroups": "True", "Ambience": {"romantic": "False", "intimate": "False", "touristy": "False", "hipster": "False", "divey": "False", "classy": "False", "trendy": "False", "upscale": "False", "casual": "True"}, "RestaurantsAttire": "casual", "BusinessAcceptsBitcoin": "False", "OutdoorSeating": "True", "BYOBCorkage": "yes_free", "BusinessParking": {"garage": "False", "street": "False", "validated": "False", "lot": "True", "valet": "False"}, "RestaurantsPriceRange2": "2", "WiFi": "free", "Corkage": "False", "RestaurantsReservations": "True", "RestaurantsTakeOut": "True", "GoodForMeal": {"dessert": "False", "latenight": "False", "lunch": "True", "dinner": "False", "brunch": "True", "breakfast": "True"}, "BusinessAcceptsCreditCards": "True", "RestaurantsTableService": "True", "NoiseLevel": "average"}, "categories": "Restaurants, Delis, Breakfast & Brunch, American (Traditional), Food, Bakeries, Bagels", "hours": {"Monday": "6:30-12:0", "Tuesday": "6:30-15:0", "Wednesday": "6:30-15:0", "Thursday": "6:30-15:0", "Friday": "6:30-14:0", "Saturday": "6:30-15:0", "Sunday": "6:30-12:0"}}
{"business_id": "aXsmmtepl0JZNcl3pkXqww", "name": "Sacks Sandwiches - Hardy", "address": "839 W University Dr", "city": "Tempe", "state": "AZ", "postal_code": "85281", "latitude": 33.4212223787, "longitude": -111.9516137633, "stars": 4.0, "review_count": 100, "is_open": 1, "attributes": {"BusinessParking": {"garage": "False", "street": "False", "validated": "False", "lot": "True", "valet": "False"}, "RestaurantsReservations": "False", "RestaurantsAttire": "casual", "GoodForKids": "True", "RestaurantsGoodForGroups": "True", "RestaurantsTakeOut": "True", "NoiseLevel": "average", "RestaurantsPriceRange2": "1", "Caters": "True", "OutdoorSeating": "True", "BikeParking": "True", "BusinessAcceptsCreditCards": "True", "DriveThru": "False", "Alcohol": "none", "RestaurantsDelivery": "True", "Ambience": {"romantic": "False", "intimate": "False", "touristy": "False", "hipster": "False", "divey": "False", "classy": "False", "trendy": "False", "upscale": "False", "casual": "True"}, "WiFi": "no", "HasTV": "False"}, "categories": "Fast Food, Sandwiches, Restaurants, American (New)", "hours": {"Monday": "0:0-0:0", "Tuesday": "8:0-15:0", "Wednesday": "8:0-15:0", "Thursday": "8:0-15:0", "Friday": "8:0-15:0"}}
{"business_id": "sMzNLdhJZGzYirIWt-fMAg", "name": "Sienna Mercato", "address": "942 Penn Ave", "city": "Pittsburgh", "state": "PA", "postal_code": "15222", "latitude": 40.4439496, "longitude": -79.9964366, "stars": 4.0, "review_count": 752, "is_open": 1, "attributes": {"BusinessAcceptsCreditCards": "True", "BusinessParking": {"garage": "False", "street": "True", "validated": "False", "lot": "False", "valet": "True"}, "RestaurantsTakeOut": "True", "GoodForKids": "True", "RestaurantsAttire": "casual", "OutdoorSeating": "True", "RestaurantsReservations": "False", "RestaurantsGoodForGroups": "True", "Ambience": {"touristy": "False", "hipster": "False", "romantic": "False", "divey": "False", "intimate": "False", "trendy": "True", "upscale": "False", "classy": "False", "casual": "True"}, "Music": {"dj": "False", "background_music": "False", "no_music": "False", "jukebox": "False", "live": "False", "video": "False", "karaoke": "False"}, "HasTV": "True", "Alcohol": "full_bar", "RestaurantsDelivery": "False", "RestaurantsPriceRange2": "2", "NoiseLevel": "average", "GoodForMeal": {"dessert": "False", "latenight": "False", "lunch": "False", "dinner": "True", "brunch": "False", "breakfast": "False"}, "Caters": "False", "GoodForDancing": "False", "WiFi": "free", "BikeParking": "True", "BestNights": {"monday": "False", "tuesday": "False", "friday": "True", "wednesday": "False", "thursday": "False", "sunday": "True", "saturday": "True"}}, "categories": "Cocktail Bars, Italian, American (New), Nightlife, Bars, Pizza, Restaurants", "hours": {"Monday": "0:0-0:0", "Tuesday": "11:0-22:0", "Wednesday": "11:0-0:0", "Thursday": "11:0-0:0", "Friday": "11:0-0:0", "Saturday": "11:0-0:0", "Sunday": "11:0-22:0"}}
{"business_id": "RbZK0G5GJtcXNIXYRB9pzQ", "name": "Fresh & Easy", "address": "3000 N Alma School Rd", "city": "Chandler", "state": "AZ", "postal_code": "85224", "latitude": 33.350169, "longitude": -111.860191, "stars": 4.5, "review_count": 30, "is_open": 0, "attributes": {"BikeParking": "True", "RestaurantsPriceRange2": "1", "BusinessAcceptsCreditCards": "True", "BusinessParking": {"garage": "False", "street": "False", "validated": "False", "lot": "True", "valet": "False"}}, "categories": "Grocery, Shopping, Food, Florists, Flowers & Gifts, Convenience Stores", "hours": {"Monday": "6:0-0:0", "Tuesday": "6:0-0:0", "Wednesday": "6:0-0:0", "Thursday": "6:0-0:0", "Friday": "6:0-0:0", "Saturday": "6:0-0:0", "Sunday": "6:0-0:0"}}
{"business_id": "_sqtz2Lk7LKVQ-RwHqoujQ", "name": "Fitness Connection", "address": "11611 Ardrey Kell Road", "city": "Charlotte", "state": "NC", "postal_code": "28277", "latitude": 35.0210499, "longitude": -80.8459957, "stars": 3.0, "review_count": 37, "is_open": 1, "attributes": {"BusinessParking": {"garage": "False", "street": "False", "validated": "False", "lot": "True", "valet": "False"}, "GoodForKids": "True", "BikeParking": "True", "BusinessAcceptsCreditCards": "True", "ByAppointmentOnly": "False"}, "categories": "Pilates, Active Life, Yoga, Fitness & Instruction, Sports Clubs, Gyms", "hours": {"Monday": "0:0-0:0", "Tuesday": "0:0-0:0", "Wednesday": "0:0-0:0", "Thursday": "0:0-0:0", "Friday": "0:0-0:0", "Saturday": "0:0-0:0", "Sunday": "0:0-0:0"}}
{"business_id": "fQXo3sLLR5M7J8hTReQ8Vg", "name": "Simplicity Laser Hair Removal", "address": "8415 N Pima Rd, Ste 255", "city": "Scottsdale", "state": "AZ", "postal_code": "85258", "latitude": 33.5573512, "longitude": -111.8908603, "stars": 3.5, "review_count": 77, "is_open": 1, "attributes": {"BikeParking": "True", "RestaurantsPriceRange2": "2", "BusinessParking": {"garage": "False", "street": "True", "validated": "False", "lot": "False", "valet": "False"}, "BusinessAcceptsCreditCards": "True", "ByAppointmentOnly": "True"}, "categories": "Beauty & Spas, Hair Removal, Laser Hair Removal", "hours": {"Monday": "8:0-20:0", "Tuesday": "8:0-20:0", "Wednesday": "8:0-20:0", "Thursday": "8:0-20:0", "Friday": "8:0-20:0", "Saturday": "9:0-16:0"}}
{"business_id": "ZRdHKIjiIa0k5-ufCLyIaQ", "name": "Denny's", "address": "2525 W Deer Valley Rd", "city": "Phoenix", "state": "AZ", "postal_code": "85027", "latitude": 33.6833375, "longitude": -112.1149421, "stars": 2.5, "review_count": 48, "is_open": 1, "attributes": {"BusinessParking": {"garage": "False", "street": "False", "validated": "False", "lot": "True", "valet": "False"}, "RestaurantsTableService": "True", "Ambience": {"romantic": "False", "intimate": "False", "touristy": "False", "hipster": "False", "divey": "False", "classy": "False", "trendy": "False", "upscale": "False", "casual": "True"}, "RestaurantsTakeOut": "True", "HasTV": "False", "RestaurantsReservations": "False", "OutdoorSeating": "False", "GoodForKids": "True", "BikeParking": "True", "RestaurantsGoodForGroups": "True", "RestaurantsPriceRange2": "1", "BusinessAcceptsCreditCards": "True", "NoiseLevel": "average", "RestaurantsDelivery": "True", "WiFi": "free", "Alcohol": "none", "Caters": "False", "GoodForMeal": {"dessert": "True", "latenight": "True", "lunch": "True", "dinner": "False", "brunch": "True", "breakfast": "True"}, "RestaurantsAttire": "casual"}, "categories": "American (Traditional), Breakfast & Brunch, Diners, American (New), Restaurants", "hours": {"Monday": "0:0-0:0", "Tuesday": "0:0-0:0", "Wednesday": "0:0-0:0", "Thursday": "0:0-0:0", "Friday": "0:0-0:0", "Saturday": "0:0-0:0", "Sunday": "0:0-0:0"}}
{"business_id": "FKQUxOfW_W5R4OTut4G1Vw", "name": "Peppi's", "address": "12 Smithfield St", "city": "Pittsburgh", "state": "PA", "postal_code": "15222", "latitude": 40.436969, "longitude": -80.0004543, "stars": 4.0, "review_count": 37, "is_open": 1, "attributes": {"GoodForKids": "True", "RestaurantsReservations": "False", "WiFi": "no", "RestaurantsPriceRange2": "1", "RestaurantsGoodForGroups": "True", "NoiseLevel": "loud", "OutdoorSeating": "False", "HasTV": "False", "Ambience": {"romantic": "False", "intimate": "False", "classy": "False", "hipster": "False", "divey": "True", "touristy": "False", "trendy": "False", "upscale": "False", "casual": "False"}, "RestaurantsDelivery": "False", "RestaurantsTakeOut": "True", "BikeParking": "True", "Alcohol": "none", "RestaurantsAttire": "casual", "BusinessParking": {"garage": "False", "street": "True", "validated": "False", "lot": "False", "valet": "False"}, "BusinessAcceptsCreditCards": "True"}, "categories": "Restaurants, Sandwiches", "hours": {"Monday": "10:0-16:0", "Tuesday": "10:0-16:0", "Wednesday": "10:0-16:0", "Thursday": "10:0-16:0", "Friday": "10:0-16:0"}}
{"business_id": "oOHgRtOX2NIC3-YwoiGJwA", "name": "Glamour Nails", "address": "1591 N Buffalo Dr", "city": "Las Vegas", "state": "NV", "postal_code": "89128", "latitude": 36.188184, "longitude": -115.2606669, "stars": 4.5, "review_count": 14, "is_open": 0, "attributes": {"BusinessParking": {"garage": "False", "street": "False", "validated": "False", "lot": "True", "valet": "False"}, "BusinessAcceptsCreditCards": "True", "RestaurantsPriceRange2": "1", "ByAppointmentOnly": "False"}, "categories": "Beauty & Spas, Nail Salons", "hours": {}}
{"business_id": "NbjeMaUoYT_XUB8PWnwLkw", "name": "Pizza Pan", "address": "2401 Scranton Rd", "city": "Cleveland", "state": "OH", "postal_code": "44113", "latitude": 41.4794737, "longitude": -81.6943074, "stars": 2.0, "review_count": 5, "is_open": 0, "attributes": {"RestaurantsDelivery": "True", "RestaurantsPriceRange2": "1", "RestaurantsTakeOut": "True"}, "categories": "Restaurants, Pizza", "hours": {"Monday": "10:0-23:0", "Tuesday": "10:0-23:0", "Wednesday": "10:0-23:0", "Thursday": "10:0-23:0", "Friday": "10:0-0:0", "Saturday": "10:0-0:0", "Sunday": "10:0-23:0"}}
